t,x,y,z,vx,vy,vz,roll,pitch,yaw,wx,wy,wz,rpm0,rpm1,rpm2,rpm3
0.000000000000000000e+00,-1.816487582363105483e-21,-4.953613730098201818e-21,1.151920954654678531e-01,-5.489822277548782318e-19,-9.091027112262221801e-19,1.844101186943212373e-02,1.389524379045742606e-17,-1.521784062599025273e-17,-7.286275102901237618e-18,1.159451977930060909e-15,-1.739177966895091363e-15,-8.327159749398901649e-16,1.511480271703345352e+04,1.511480271703344988e+04,1.511480271703344988e+04,1.511480271703344988e+04
2.083333333333333218e-02,-6.856533998756990693e-20,-6.944139629540465841e-20,1.157603585048033457e-01,-7.146136102831676920e-18,-6.139874307488328431e-18,3.611185108820847561e-02,3.805028706218963708e-17,-5.145040553358856464e-17,-2.463442900540502393e-17,1.159432176212596151e-15,-1.739148264318893733e-15,-8.327067997173229954e-16,1.508871324421850113e+04,1.508871324421850113e+04,1.508871324421850113e+04,1.508871324421850113e+04
4.166666666666666435e-02,-3.482955944753751680e-19,-2.984317723687393786e-19,1.166889823553072941e-01,-2.013552896568940874e-17,-1.669842314338115796e-17,5.303544380245974604e-02,6.220491780166407799e-17,-5.748820377185004323e-17,-2.463411042199016679e-17,1.159412374833314880e-15,1.159511382575179952e-15,8.327343252839278373e-16,1.506340395625275232e+04,1.506340395625275960e+04,1.506340395625275596e+04,1.506340395625275596e+04
6.250000000000000000e-02,-8.865513784965077258e-19,-8.025586876360576224e-19,1.179626331731804673e-01,-3.068445679733776438e-17,-3.255013166696685397e-17,6.923426162692229713e-02,8.635913601592621654e-17,-3.333192291391270655e-17,-7.285574222758427965e-18,1.159392573792212165e-15,1.159491579843171834e-15,8.327251498591686167e-16,1.503885740090774016e+04,1.503885740090774016e+04,1.503885740090774016e+04,1.503885740090774016e+04
8.333333333333332871e-02,-1.585773781012756642e-18,-1.688653463308681353e-18,1.195664405093682381e-01,-3.525118601004504966e-17,-5.302467356618238016e-17,8.473031654406902591e-02,9.843528256364128156e-17,2.901604539010812029e-18,1.439984115696933272e-17,-7.920484077926175130e-20,2.318923755379426255e-15,1.249073962005453314e-15,1.501505620630914927e+04,1.501505620630915109e+04,1.501505620630915109e+04,1.501505620630915109e+04
1.041666666666666574e-01,-2.287073426527586636e-18,-3.018080368171277859e-18,1.214859876929483690e-01,-3.037934510070581155e-17,-7.460012168697255981e-17,9.954515712182511467e-02,9.843363247688237277e-17,5.121210356893837831e-17,4.042207200230043994e-17,-7.920348807826637824e-20,2.318884151606349934e-15,1.249060199171606899e-15,1.499198310431670507e+04,1.499198310431670507e+04,1.499198310431670507e+04,1.499198310431670507e+04
1.250000000000000000e-01,-2.783162764402630320e-18,-4.796313417297760187e-18,1.237073021485283197e-01,-1.623183068170083901e-17,-9.611004006425727194e-17,1.136998659536215817e-01,9.843198241830449677e-17,7.536645923054560440e-17,6.644401612350604789e-17,-7.920213540036492743e-20,-5.940735047482050334e-20,1.249046436489405187e-15,1.496962095203868012e+04,1.496962095203867648e+04,1.496962095203867648e+04,1.496962095203868012e+04
1.458333333333333148e-01,-2.950265555492192636e-18,-7.022008424295588665e-18,1.262168456721576848e-01,1.898053071642355002e-19,-1.175564717918316771e-16,1.272150582288031073e-01,9.843033238790718517e-17,7.536522158797938384e-17,9.246567352374540275e-17,-7.920078274554856368e-20,-5.940633588552170090e-20,1.249032673958846799e-15,1.494795275156137905e+04,1.494795275156137905e+04,1.494795275156137905e+04,1.494795275156137905e+04
1.666666666666666574e-01,-2.775741154046011393e-18,-9.693863625603718882e-18,1.290015046883895566e-01,1.656437452781041797e-17,-1.389414116874313965e-16,1.401108813456666546e-01,9.842868238568994493e-17,7.536398396655023517e-17,1.184870442061777199e-16,-7.919943011382397959e-20,-5.940532131354931053e-20,1.249018911579929762e-15,1.492696166797369733e+04,1.492696166797369733e+04,1.492696166797369733e+04,1.492696166797369733e+04
1.875000000000000000e-01,-2.265133963781717924e-18,-1.281672388817202523e-17,1.320485805093405962e-01,3.195135015477879658e-17,-1.615228331305346899e-16,1.524070154836429380e-01,1.225823507084124342e-16,5.724625764368771224e-17,1.336654523386486989e-16,2.318824757782616530e-15,-1.739237371201850412e-15,2.081101806777900397e-16,1.490663104576666046e+04,1.490663104576665683e+04,1.490663104576665683e+04,1.490663104576665683e+04
2.083333333333333148e-01,-1.488674837797581597e-18,-1.647465996242978307e-17,1.353457796149036552e-01,4.150288789668532563e-17,-1.903068858499974517e-16,1.641226750553184677e-01,1.346578098608780713e-16,2.705128473112341635e-17,1.423381275509401047e-16,-1.159570778089911057e-15,-1.159481678646085278e-15,6.244658751003051646e-16,1.488694442368709497e+04,1.488694442368709679e+04,1.488694442368710043e+04,1.488694442368710043e+04
2.291666666666666574e-01,-5.778349959442239732e-19,-2.072867604415383512e-17,1.388812039716580682e-01,4.493815042290352105e-17,-2.172454265873551484e-16,1.752766109631168634e-01,1.105002916069503943e-16,-3.143206874432199139e-18,1.510106912746743230e-16,-1.159550974343515773e-15,-1.739187865386406707e-15,2.081010069969122755e-16,1.486788554812365874e+04,1.486788554812365692e+04,1.486788554812365692e+04,1.486788554812365692e+04
2.500000000000000000e-01,3.379191796277540545e-19,-2.548756653864355173e-17,1.426433414064975091e-01,4.239262379104989254e-17,-2.386107532008583521e-16,1.858871135894976656e-01,8.030435635335946262e-17,-1.522065970207847208e-17,1.596831753696670573e-16,-1.739257159900369336e-15,5.797457932189640541e-16,6.244567015205068106e-16,1.484943838510191563e+04,1.484943838510191927e+04,1.484943838510191927e+04,1.484943838510191745e+04
2.708333333333333148e-01,1.193568116772260789e-18,-3.062008579714607299e-17,1.466210560495551929e-01,4.016412565252310309e-17,-2.530334361566504546e-16,1.959720164534753950e-01,5.010897117976313090e-17,-3.142725481111959486e-18,1.661870128111457379e-16,-1.159501467006642386e-15,5.797358920220043081e-16,-8.716021678004765342e-20,1.483158713096413157e+04,1.483158713096412976e+04,1.483158713096412976e+04,1.483158713096412794e+04
2.916666666666666297e-01,2.031280494932427662e-18,-3.599185829713301646e-17,1.508035788596456539e-01,4.083507006504242141e-17,-2.619951095967685322e-16,2.055487004701007092e-01,3.199172646859636483e-17,1.497383204086937298e-17,1.640166618162373176e-16,-5.797556754789470057e-16,1.159451979959172873e-15,-2.082661529913838319e-16,1.481431622180706472e+04,1.481431622180706472e+04,1.481431622180706472e+04,1.481431622180706290e+04
3.125000000000000000e-01,2.921146722320551116e-18,-4.152162252093306971e-17,1.551804982441609415e-01,4.473231430545071705e-17,-2.691393115400357528e-16,2.146340987532704414e-01,4.092577307675027502e-17,1.908021085736073530e-17,1.635825954426891307e-16,-1.978514818245516349e-20,-5.797457886534181545e-16,8.326311104494786260e-16,1.479761034174982524e+04,1.479761034174982524e+04,1.479761034174982342e+04,1.479761034174982706e+04
3.333333333333333148e-01,3.888967463352135779e-18,-4.721946715889509343e-17,1.597417507841552287e-01,4.776686984737803955e-17,-2.778536879484146650e-16,2.232447019058366733e-01,4.092536088968295316e-17,7.002276731508951205e-18,1.809289813447163837e-16,-1.978481028146093204e-20,-5.797358874565364071e-16,8.326219361619847723e-16,1.478145443010126837e+04,1.478145443010126837e+04,1.478145443010126837e+04,1.478145443010126837e+04
3.541666666666666297e-01,4.893191969899255275e-18,-5.309866402138909590e-17,1.644776120742192649e-01,4.822799051230693756e-17,-2.865491261707312641e-16,2.313965637444606871e-01,4.092494870965517333e-17,-5.075451121169235065e-18,1.982751761168071669e-16,-1.978447238627575669e-20,-5.797259864287523195e-16,8.326127619755772313e-16,1.476583368749459078e+04,1.476583368749459078e+04,1.476583368749459078e+04,1.476583368749459078e+04
3.750000000000000000e-01,5.880321798824861688e-18,-5.915882522664037746e-17,1.693786876856875623e-01,4.612666462365344392e-17,-2.952262661784442503e-16,2.391053074100046305e-01,4.092453653666681228e-17,-1.715297270419666061e-17,2.156211797610674431e-16,-1.978413449698552490e-20,-5.797160855700630322e-16,8.326035878902548198e-16,1.475073358105439729e+04,1.475073358105439729e+04,1.475073358105439729e+04,1.475073358105439729e+04
3.958333333333333148e-01,6.797081621869196477e-18,-6.539957604562440907e-17,1.744359042607288302e-01,4.147332351617280060e-17,-3.038857306214312655e-16,2.463861318174632720e-01,4.092412437071775290e-17,-2.923028802109611014e-17,2.329669922796030766e-16,-1.978379661323666299e-20,-5.797061848804656854e-16,8.325944139060163544e-16,1.473613984865915154e+04,1.473613984865915154e+04,1.473613984865915154e+04,1.473613984865915154e+04
4.166666666666666297e-01,7.595722691277956520e-18,-7.182709839974617016e-17,1.796405007439436097e-01,3.499221502276880422e-17,-3.134076640356962075e-16,2.532538184025166506e-01,4.687164077742062712e-17,-3.647652870235726277e-17,2.069429666673307391e-16,-1.978345873546636009e-20,-5.796962843599575182e-16,-3.330994634676589975e-15,1.472203850235964819e+04,1.472203850235963910e+04,1.472203850235964819e+04,1.472203850235963910e+04
4.375000000000000000e-01,8.238245651900251697e-18,-7.846231370423462850e-17,1.849840197572308331e-01,2.628261742319203007e-17,-3.238987843162441798e-16,2.597227381247250166e-01,5.894888777392989539e-17,-4.855343149756884632e-17,1.787497956024072533e-16,1.159432194809197411e-15,-5.796863840085355724e-16,6.244429486186506239e-16,1.470841583101161450e+04,1.470841583101162360e+04,1.470841583101161268e+04,1.470841583101162178e+04
4.583333333333333148e-01,8.677214814119919832e-18,-8.534917649819447175e-17,1.904582991228797040e-01,1.589100754148534281e-17,-3.377085413833652047e-16,2.658068586901921604e-01,6.500465991092666603e-17,-4.348024039101702650e-17,1.909790927887339528e-16,-1.159491562430523391e-15,1.159501483068894671e-15,1.248973049442734361e-15,1.469525840217826044e+04,1.469525840217826408e+04,1.469525840217826590e+04,1.469525840217826408e+04
4.791666666666666297e-01,8.925805687701178913e-18,-9.251431964678363192e-17,1.960554635390985012e-01,8.785728737101209388e-18,-3.493331645174615947e-16,2.715197519591958653e-01,4.084879196914363047e-17,-1.932416577103282531e-17,2.169992213005907031e-16,-1.159471760037013909e-15,1.159481680505955419e-15,1.248959287720786011e-15,1.468255306335591376e+04,1.468255306335591376e+04,1.468255306335591376e+04,1.468255306335591376e+04
5.000000000000000000e-01,9.076330712692980539e-18,-9.986569333993000522e-17,2.017679164114982993e-01,6.151105005227665875e-18,-3.552639610136528404e-16,2.768746015068221933e-01,4.615677425322421769e-18,-7.246162849300365620e-18,2.495246686126744599e-16,-2.318903935911761050e-15,9.900351153585182527e-21,1.873482507355387761e-15,1.467028694257375537e+04,1.467028694257375537e+04,1.467028694257375355e+04,1.467028694257375719e+04
5.208333333333332593e-01,9.188673615979084584e-18,-1.072562054336848831e-16,2.075883318434094404e-01,4.633830260825261072e-18,-3.530920889247821946e-16,2.818842103070505201e-01,-2.557791997998458310e-17,-7.245956593745957623e-18,2.560273116467053618e-16,-5.796863655820799736e-16,9.900182070286691448e-21,-1.249223041504810216e-15,1.465844744841605461e+04,1.465844744841604734e+04,1.465844744841605279e+04,1.465844744841604552e+04
5.416666666666666297e-01,9.270904979682658945e-18,-1.145517202594376100e-16,2.135096467873171255e-01,3.421967808652714955e-18,-3.470349925921242406e-16,2.865610085130160245e-01,-3.161578656156490732e-17,-1.206920767524045989e-18,2.256649046614562572e-16,4.952356497450659228e-20,5.797358889780203236e-16,-1.665567264498286894e-15,1.464702226951292323e+04,1.464702226951292323e+04,1.464702226951292323e+04,1.464702226951292141e+04
5.625000000000000000e-01,9.345872395203117493e-18,-1.217128443870460690e-16,2.195250533591554809e-01,4.178223490418176441e-18,-3.404330728260662686e-16,2.909170613083360557e-01,-3.161475482943826161e-17,1.087080711685145488e-17,1.779545668150510860e-16,4.952271918577123832e-20,5.797259879502104008e-16,-2.914622874972033197e-15,1.463599937354346912e+04,1.463599937354346548e+04,1.463599937354346912e+04,1.463599937354346548e+04
5.833333333333332593e-01,9.460861034880040391e-18,-1.287388132948042467e-16,2.256279913166994444e-01,7.017784791496974691e-18,-3.343431132884815689e-16,2.949640768064227814e-01,-2.305281988432886073e-17,1.497713805796513894e-17,1.652023535041861077e-16,5.797755108384417458e-16,-9.901873535225401486e-21,1.457168108030119967e-15,1.462536700579261560e+04,1.462536700579262470e+04,1.462536700579261378e+04,1.462536700579262470e+04
6.041666666666666297e-01,9.641000593063683902e-18,-1.356605690394261790e-16,2.318121407028314873e-01,1.043644202584982449e-17,-3.305476471456278515e-16,2.987134139766249308e-01,-1.097426655157671400e-17,2.101576134488475316e-17,1.977283903413129022e-16,5.797656091339490093e-16,5.797160872606045738e-16,1.665331046060492925e-15,1.461511368730102186e+04,1.461511368730102367e+04,1.461511368730102367e+04,1.461511368730102367e+04
6.250000000000000000e-01,9.911662303363974794e-18,-1.425265367900505550e-16,2.380714146540391374e-01,1.610923041390010496e-17,-3.286657763407227958e-16,3.021760905778486661e-01,-1.097357865095337408e-17,3.913190627119355805e-17,2.389282014961880049e-16,-5.796962703314979042e-16,1.159432175536008888e-15,2.289849677932077245e-15,1.460522821264493177e+04,1.460522821264493359e+04,1.460522821264493359e+04,1.460522821264493359e+04
6.458333333333332593e-01,1.033856131393342992e-17,-1.493455049064044115e-16,2.443999523741139379e-01,2.503359904319198762e-17,-3.258111157330882020e-16,3.053627910820089775e-01,-1.789129313307134839e-17,3.913136281477385630e-17,2.337214587564710389e-16,-5.796863699803154763e-16,-1.159491581703382565e-15,-2.914650395990313565e-15,1.459569964738106864e+04,1.459569964738105409e+04,1.459569964738106682e+04,1.459569964738105773e+04
6.666666666666666297e-01,1.092915817429706140e-17,-1.560956191252418423e-16,2.507921122726707863e-01,3.054214336910410331e-17,-3.226002495256188993e-16,3.082838745712543904e-01,2.261584904793487042e-19,2.897835323096280796e-18,1.599886990348168987e-16,2.318953475026935763e-15,-2.318923757239604840e-15,-4.163692243529180684e-15,1.458651732518931567e+04,1.458651732518931203e+04,1.458651732518931203e+04,1.458651732518931021e+04
6.875000000000000000e-01,1.154962023295136181e-17,-1.628389996594189993e-16,2.572424652677885448e-01,2.774186377696709204e-17,-3.260446018379173533e-16,3.109493825944040224e-01,3.645961752606277451e-17,-3.333500459720460431e-17,1.122792215250377000e-16,1.159461892816231228e-15,-1.159432175536436056e-15,-4.164244789487103666e-16,1.457767084474423609e+04,1.457767084474424701e+04,1.457767084474423973e+04,1.457767084474424701e+04
7.083333333333332593e-01,1.204631731681465595e-17,-1.697198618975916944e-16,2.637457882517842966e-01,1.950949586849748308e-17,-3.350685933358941202e-16,3.133690469694359049e-01,5.356294725511530295e-17,-4.347986534148032079e-17,1.055125851304194307e-16,-9.887000626291263353e-21,3.960377289424132692e-20,-8.327778780747399783e-16,1.456915006634432575e+04,1.456915006634432575e+04,1.456915006634432757e+04,1.456915006634432575e+04
7.291666666666666297e-01,1.235920910758535245e-17,-1.768241139010298171e-16,2.702970577188707479e-01,1.052815023743899628e-17,-3.474556029704487701e-16,3.155522975201692781e-01,6.874385565606980915e-17,-4.347986534148032696e-17,1.055125851304194307e-16,-9.886831771045508871e-21,3.960309652062637826e-20,-6.245897084351248007e-16,1.456094510832615379e+04,1.456094510832615379e+04,1.456094510832615379e+04,1.456094510832615561e+04
7.500000000000000000e-01,1.248509321845633103e-17,-1.842173689755024907e-16,2.768914435532165985e-01,1.556761803889199121e-18,-3.625959390976837946e-16,3.175082697365076978e-01,7.019056383158939084e-17,-4.347953532018507391e-17,1.003077167734923753e-16,-1.159461864592979298e-15,3.960242015857051808e-20,-6.245828264372282160e-16,1.455304634328902102e+04,1.455304634328902102e+04,1.455304634328902284e+04,1.455304634328902284e+04
7.708333333333332593e-01,1.242852926134061327e-17,-1.919067707523966344e-16,2.835243029757146260e-01,-6.509063350871411421e-18,-3.744717031124828362e-16,3.192458123487432742e-01,3.395765544109183206e-17,-2.536222155424032868e-17,9.596978691112076829e-17,-2.318894040636725688e-15,1.739217568638899524e-15,2.081400304247297721e-16,1.454544439415362103e+04,1.454544439415362467e+04,1.454544439415362467e+04,1.454544439415362467e+04
7.916666666666666297e-01,1.225861959240475144e-17,-1.997576610406308360e-16,2.901911746475798193e-01,-8.449508000029106516e-18,-3.777813720539307586e-16,3.207734948074826842e-01,-8.313394962792395621e-18,1.690999795683214881e-17,9.596894332146329636e-17,-1.739128448406102403e-15,2.318913854351393577e-15,-2.082202504215426046e-16,1.453813013007704467e+04,1.453813013007704467e+04,1.453813013007704467e+04,1.453813013007704285e+04
8.125000000000000000e-01,1.214076020478766894e-17,-2.075959815483350358e-16,2.968877729287321965e-01,-1.592855721279562624e-18,-3.739816847276467655e-16,3.220996146617394196e-01,-2.642843952144274189e-17,5.314263156872369341e-17,8.946251016920636972e-17,7.922021948475559174e-20,1.159422272817351247e-15,-4.163969498962893725e-16,1.453109466224457719e+04,1.453109466224457537e+04,1.453109466224457356e+04,1.453109466224457537e+04
8.333333333333332593e-01,1.223374810441577520e-17,-2.153306572200791866e-16,3.036099822887733946e-01,1.131385940098245504e-17,-3.685472478883450769e-16,3.232322048286455085e-01,-2.642678911429688504e-17,7.729705598922571442e-17,8.078762150521089871e-17,7.921886652114799481e-20,1.159402471607205501e-15,-4.163923618557009778e-16,1.452432933955756380e+04,1.452432933955756380e+04,1.452432933955756380e+04,1.452432933955756380e+04
8.541666666666666297e-01,1.264717187209672422e-17,-2.229521705420021274e-16,3.103538518682394387e-01,2.916824685091458145e-17,-3.631180979640979335e-16,3.241790407490870995e-01,-2.642513873533753677e-17,1.014510678880390344e-16,7.211282842486775917e-17,7.921751358051326340e-20,1.159382670735234959e-15,-4.163877738656655510e-16,1.451782574423503138e+04,1.451782574423503138e+04,1.451782574423503138e+04,1.451782574423503138e+04
8.750000000000000000e-01,1.348402165267849804e-17,-2.304577391860382945e-16,3.171155901877005245e-01,5.196204702339380104e-17,-3.570994422276158218e-16,3.249476474243462865e-01,-3.850114753294427962e-17,1.256046672722089022e-16,6.343813092712378482e-17,-1.159372761769397694e-15,1.159362870201433901e-15,-4.163831859261825989e-16,1.451157568734550478e+04,1.451157568734550478e+04,1.451157568734550659e+04,1.451157568734550659e+04
8.958333333333332593e-01,1.484423312593339208e-17,-2.378012512707751057e-16,3.238915600021843311e-01,7.909346180663550177e-17,-3.469272229524340205e-16,3.255453063295556393e-01,-6.869337005627875212e-17,1.376801950004003865e-16,5.476352901092576623e-17,-1.739078950369857674e-15,-1.089079242642010422e-19,-4.163785980372515299e-16,1.450557120428424059e+04,1.450557120428423877e+04,1.450557120428423877e+04,1.450557120428424059e+04
9.166666666666666297e-01,1.678429666801527826e-17,-2.448637653263333776e-16,3.306782732983193918e-01,1.069942256190739956e-16,-3.298869395426103425e-16,3.259790622004394844e-01,-1.049238721372165687e-16,1.316390965304964261e-16,4.392048750815787463e-17,-1.739049249484715529e-15,-5.798348950293090454e-16,-6.245530039338442444e-16,1.449980455020987392e+04,1.449980455020987210e+04,1.449980455020987210e+04,1.449980455020987210e+04
9.375000000000000000e-01,1.929066751133119632e-17,-2.514984903614222642e-16,3.374723864315272714e-01,1.335381353717452901e-16,-3.063349181495282907e-16,3.262557296904278759e-01,-1.230372667324276624e-16,1.316369651860458033e-16,1.572929210682752454e-17,1.584177882711978387e-19,5.796269856194381993e-16,-2.081799078485181360e-15,1.449426819545336912e+04,1.449426819545336730e+04,1.449426819545336730e+04,1.449426819545336366e+04
9.583333333333332593e-01,2.235785105099455227e-17,-2.576197838356451718e-16,3.442706954005381736e-01,1.611485334138907818e-16,-2.814673073387801102e-16,3.263818998957941364e-01,-1.169951368158314049e-16,1.376735946956349016e-16,-2.330421275457936753e-17,5.798844040477611335e-16,-1.089025134946403958e-19,-1.665418152858097382e-15,1.448895482091112535e+04,1.448895482091112535e+04,1.448895482091112353e+04,1.448895482091112535e+04
9.791666666666666297e-01,2.600529112327422860e-17,-2.632407776800330192e-16,3.510701312564602494e-01,1.886898007657153830e-16,-2.585432268552985117e-16,3.263639467469849342e-01,-1.049143148939240557e-16,1.255936667642643319e-16,-6.450583862440686963e-17,5.798745004835343349e-16,-1.159560878583662260e-15,-2.289936783769902052e-15,1.448385731343308180e+04,1.448385731343307816e+04,1.448385731343307998e+04,1.448385731343307998e+04
1.000000000000000000e+00,3.018828534452526076e-17,-2.684129306252918509e-16,3.578677556436005713e-01,2.117727040332222597e-16,-2.386938000460603019e-16,3.262080332647839809e-01,-8.075604014612950902e-17,8.935869559990895974e-17,-1.187181976254451675e-16,1.739316575018506534e-15,-2.318993052936396751e-15,-2.914448533466972410e-15,1.447896876121571222e+04,1.447896876121570858e+04,1.447896876121570858e+04,1.447896876121570858e+04
1.020833333333333259e+00,3.476840526018956065e-17,-2.732296231788163605e-16,3.646607564692119774e-01,2.266566724374931040e-16,-2.245764888052661000e-16,3.259201176803849243e-01,-5.659824674233207756e-17,5.312441203158606859e-17,-1.837726112327810888e-16,5.798348921450272887e-16,-1.159501470049759905e-15,-3.330774408290156491e-15,1.447428244920898214e+04,1.447428244920898214e+04,1.447428244920898396e+04,1.447428244920898214e+04
1.041666666666666519e+00,3.959239426611747969e-17,-2.777927533475300400e-16,3.714464436993239471e-01,2.358155912103870134e-16,-2.137206092183805554e-16,3.255059594188439154e-01,-5.055728588378014166e-17,3.500716725702156526e-17,-2.553318976145177574e-16,9.900046135982693808e-20,-5.797556785220126575e-16,-3.538916702120915384e-15,1.446979185454547769e+04,1.446979185454547769e+04,1.446979185454547951e+04,1.446979185454547769e+04
1.062500000000000000e+00,4.457768693436108568e-17,-2.821407687372346972e-16,3.782222452778092880e-01,2.428511805883065061e-16,-2.040039227981606490e-16,3.249711249457393203e-01,-3.847756424340075657e-17,4.104551581657026978e-17,-2.770140787181874032e-16,1.159550976700640046e-15,1.159432189738864941e-15,1.457418140823905720e-15,1.446549064199908935e+04,1.446549064199910208e+04,1.446549064199909117e+04,1.446549064199910026e+04
1.083333333333333259e+00,4.973790322203055424e-17,-2.863171733995579621e-16,3.849857031658376894e-01,2.534743138270367711e-16,-1.972460668762471581e-16,3.243209934771948966e-01,-3.243694723746364974e-17,7.123897641202962575e-17,-2.336401570579075155e-16,-5.796467936026686369e-16,1.739138377324383185e-15,2.706476044774172467e-15,1.446137265948005734e+04,1.446137265948006097e+04,1.446137265948006097e+04,1.446137265948006279e+04
1.104166666666666519e+00,5.518669748285734349e-17,-2.903500736280439393e-16,3.917344694988745268e-01,2.706329244905073189e-16,-1.893616246628177875e-16,3.235607625537150200e-01,-5.055164855822623955e-17,1.014318869697578698e-16,-1.729184797615206776e-16,-1.159362883061505910e-15,1.159382686459286402e-15,3.122804211127637035e-15,1.445743193357231939e+04,1.445743193357231939e+04,1.445743193357231939e+04,1.445743193357232121e+04
1.125000000000000000e+00,6.104918344115492828e-17,-2.941788448641021337e-16,3.984663028583937394e-01,2.925905161397154146e-16,-1.778577745773740081e-16,3.226954534785474449e-01,-5.622596846685656096e-17,1.115761291037387268e-16,-1.487163584883551692e-16,1.088950644117921331e-19,-8.909200484402333345e-20,-8.326310782360228894e-16,1.445366266511867252e+04,1.445366266511866161e+04,1.445366266511866888e+04,1.445366266511866161e+04
1.145833333333333259e+00,6.738121023018279729e-17,-2.977635299662347182e-16,4.051790646554929154e-01,3.152840045672799018e-16,-1.654986621590915376e-16,3.217299166215288331e-01,-8.724812189155393123e-17,1.115746442522069553e-16,-1.625934513825935801e-16,-3.478247040585537339e-15,-8.909048328477596467e-20,-8.326219039488840231e-16,1.445005922485846895e+04,1.445005922485846895e+04,1.445005922485847259e+04,1.445005922485847259e+04
1.166666666666666519e+00,7.418733310189241814e-17,-3.009898094792603644e-16,4.118707156236195988e-01,3.382608336462866778e-16,-1.418670169640293336e-16,3.206688365895825621e-01,-1.597109831176927384e-16,1.176116177905112484e-16,-1.734340399823937115e-16,-3.478187637292876931e-15,5.796369000032787562e-16,-2.080757485579137719e-16,1.444661614912228652e+04,1.444661614912228833e+04,1.444661614912228652e+04,1.444661614912228652e+04
1.187500000000000000e+00,8.148665176612328418e-17,-3.035790499926553777e-16,4.185393124176442492e-01,3.625522889524969720e-16,-1.052860448674635317e-16,3.195167372652260585e-01,-1.916611623378511990e-16,1.195424561389121808e-16,-1.727383632613462469e-16,2.276987754467062491e-19,-5.798249772640076394e-16,4.164635253150458741e-16,1.444332813558706584e+04,1.444332813558706584e+04,1.444332813558706039e+04,1.444332813558706403e+04
1.208333333333333259e+00,8.928657596873208059e-17,-3.053737970009767743e-16,4.251830043165467088e-01,3.854790511613056838e-16,-6.741966549467753336e-17,3.182779867146213748e-01,-1.766289123962640723e-16,9.248697967025992719e-17,-1.762063179214702429e-16,1.159679672816750730e-15,-2.318993041609793429e-15,-6.244360321339617069e-16,1.444019003909530875e+04,1.444019003909530511e+04,1.444019003909530511e+04,1.444019003909530329e+04
1.229166666666666519e+00,9.748846908632864020e-17,-3.064170285682270710e-16,4.318000300270146141e-01,4.003331554558975210e-16,-3.351544764242852245e-17,3.169568019668456138e-01,-1.524691255215664318e-16,4.417503718952586004e-17,-1.892153302542896567e-16,1.159659867210595351e-15,-2.318953436653411157e-15,-6.244291518293365170e-16,1.443719686754100803e+04,1.443719686754100803e+04,1.443719686754100803e+04,1.443719686754100803e+04
1.250000000000000000e+00,1.058990369815121779e-16,-3.068037171558603146e-16,4.383887145852894407e-01,4.056693026454466932e-16,-4.234379038537301809e-18,3.155572536661931382e-01,-1.343485808343302938e-16,1.902749379194005063e-18,-2.065612695823444874e-16,5.799140729776597615e-16,-1.739187843408392028e-15,-1.040780259070466534e-15,1.443434377782483170e+04,1.443434377782483170e+04,1.443434377782483352e+04,1.443434377782483170e+04
1.270833333333333259e+00,1.143405653240671138e-16,-3.066141932355296197e-16,4.449474663546358899e-01,4.040821507232167405e-16,2.200123460703662793e-17,3.140832705994372476e-01,-1.210393536686370673e-16,-1.331503648598139814e-17,-2.156676107812022229e-16,5.799041689067318263e-16,1.982623157297844614e-20,1.261773686854614076e-19,1.443162607188060792e+04,1.443162607188061156e+04,1.443162607188060974e+04,1.443162607188060974e+04
1.291666666666666519e+00,1.227307786461930611e-16,-3.059044406941111574e-16,4.514747741158493533e-01,4.013783267722633230e-16,4.586063849449450093e-17,3.125386441000744253e-01,-1.106838896910974603e-16,-1.331503648598139814e-17,-2.156676107812022229e-16,-5.795577129251103498e-16,5.797458148580009623e-16,4.164841634483540407e-16,1.442903919277487148e+04,1.442903919277487330e+04,1.442903919277487330e+04,1.442903919277487330e+04
1.312500000000000000e+00,1.310646718136799197e-16,-3.047249414071839346e-16,4.579692042482608194e-01,3.986754156901327333e-16,6.674987053103145457e-17,3.109270323316628004e-01,-9.152811807072831614e-17,-1.331503648598139506e-17,-2.156676107812022229e-16,-5.795478149402826568e-16,5.797359136606717335e-16,4.164795744468092615e-16,1.442657872088087788e+04,1.442657872088087788e+04,1.442657872088087788e+04,1.442657872088087788e+04
1.333333333333333259e+00,1.393422633549885009e-16,-3.031507683955633311e-16,4.644293979987431653e-01,3.959733704857930566e-16,8.374951887767856039e-17,3.092519644524359124e-01,-7.237264978533220901e-17,-1.331503648598139352e-17,-2.156676107812022229e-16,-5.795379171244978964e-16,5.797260126324404604e-16,4.164749854958280999e-16,1.442424037012819463e+04,1.442424037012819463e+04,1.442424037012819463e+04,1.442424037012819463e+04
1.354166666666666519e+00,1.475739693020944366e-16,-3.012413995907217400e-16,4.708540688362679583e-01,3.951316727468405607e-16,1.005675335323246066e-16,3.075168446634333752e-01,-1.086015715880723242e-16,1.687897436552165681e-17,-1.961484205491927652e-16,-2.898431975337875125e-15,2.318894078668395055e-15,1.457365365270272522e-15,1.442201998432875007e+04,1.442201998432875371e+04,1.442201998432875371e+04,1.442201998432875371e+04
1.375000000000000000e+00,1.558659236436629313e-16,-2.988865040818238871e-16,4.772419998896106352e-01,4.024617862365823733e-16,1.274596265129337962e-16,3.057249561424395523e-01,-1.689850554383037049e-16,6.518885513591560816e-17,-1.657868093759324440e-16,-2.898382474425237840e-15,2.318854475402152794e-15,1.457349307392207711e-15,1.441991353357994558e+04,1.441991353357994558e+04,1.441991353357994558e+04,1.441991353357994558e+04
1.395833333333333259e+00,1.644052587819995598e-16,-2.958530364137851854e-16,4.835920414658477773e-01,4.180581579559565935e-16,1.646005085511716365e-16,3.038794648660570474e-01,-1.867617961620896352e-16,8.330446958202703057e-17,-1.522540460924259908e-16,5.800229594321807461e-16,-5.798150720128767368e-16,2.082592872812403276e-16,1.441791711074515115e+04,1.441791711074514387e+04,1.441791711074514387e+04,1.441791711074514569e+04
1.416666666666666519e+00,1.732865201675493103e-16,-2.920391755051381656e-16,4.899031086473423779e-01,4.340812429198082245e-16,2.009420175787032956e-16,3.019834233222747355e-01,-1.673972110436960634e-16,6.784370878142969192e-17,-1.446194939069929724e-16,1.159739042466664278e-15,-1.159531158597768500e-15,6.246149800608346826e-16,1.441602692801187186e+04,1.441602692801187186e+04,1.441602692801187004e+04,1.441602692801187186e+04
1.437500000000000000e+00,1.824635329045019293e-16,-2.875092832111428641e-16,4.961741789649583567e-01,4.464425103748902245e-16,2.334580209039791924e-16,3.000397741159074316e-01,-1.553138464602339714e-16,5.576467507492003245e-17,-1.251011480117144630e-16,2.672579165023894484e-19,-5.937759795434624206e-20,1.249145078989402022e-15,1.441423931352752697e+04,1.441423931352753061e+04,1.441423931352753061e+04,1.441423931352753061e+04
1.458333333333333259e+00,1.918819456373419692e-16,-2.823181584771646230e-16,5.024042901452984156e-01,4.577250826553418413e-16,2.648898023817355381e-16,2.980513534693005617e-01,-1.553082786345191378e-16,5.576343805219268930e-17,-9.907743557071359307e-17,2.672533521341952370e-19,-5.937658387332898811e-20,1.249131315371958178e-15,1.441255070811261976e+04,1.441255070811261976e+04,1.441255070811261976e+04,1.441255070811261976e+04
1.479166666666666519e+00,2.015353840163663394e-16,-2.764722873120530179e-16,5.085925379298085192e-01,4.690049727712346571e-16,2.963136793230116061e-16,2.960208946206963621e-01,-1.553027109038944852e-16,5.576220105059187936e-17,-7.305400987016307632e-17,2.672487878438963696e-19,-5.937556980924860283e-20,1.249117551906167716e-15,1.441095766205100881e+04,1.441095766205100881e+04,1.441095766205100881e+04,1.441095766205100881e+04
1.500000000000000000e+00,2.114266436848930454e-16,-2.699689799119466683e-16,5.147380739636403524e-01,4.808685899931479735e-16,3.283162773699752696e-16,2.939510311226615213e-01,-1.673748024167385114e-16,6.783862321849728377e-17,-4.052526540571540188e-17,-1.159184733706429013e-15,1.159392603374298502e-15,1.873640769796946484e-15,1.440945683195687525e+04,1.440945683195687889e+04,1.440945683195687889e+04,1.440945683195687889e+04
1.520833333333333259e+00,2.215969956874698362e-16,-2.627656464916965024e-16,5.208401037522160104e-01,4.959542771068822333e-16,3.638289909527342567e-16,2.918443000429664091e-01,-1.854854485738315714e-16,7.991477038250055095e-17,6.772374173532025387e-19,-5.794389475880678365e-16,-7.917525919828963752e-20,2.081799118952504920e-15,1.440804497771768365e+04,1.440804497771768183e+04,1.440804497771768001e+04,1.440804497771768183e+04
1.541666666666666519e+00,2.320976855817157319e-16,-2.547890574661226807e-16,5.268978846834867502e-01,5.121119164415744794e-16,4.023141901039903647e-16,2.897031450703000943e-01,-1.975569902320760735e-16,7.991312091201934261e-17,4.404781345595008974e-17,-5.794290516315755732e-16,-7.917390700233508675e-20,2.081776180794919726e-15,1.440671895951246188e+04,1.440671895951246188e+04,1.440671895951246188e+04,1.440671895951246188e+04
1.562500000000000000e+00,2.429335371068278686e-16,-2.459896026146745426e-16,5.329107241139277029e-01,5.279735140998761180e-16,4.423552899366743521e-16,2.875299195271854291e-01,-1.915118370037507471e-16,7.387264189551860290e-17,7.657523578358317822e-17,1.159758811050999732e-15,-5.798051615198601768e-16,1.040858274215214381e-15,1.440547573490471041e+04,1.440547573490470677e+04,1.440547573490470677e+04,1.440547573490470495e+04
1.583333333333333259e+00,2.540824119856922607e-16,-2.363827908843239688e-16,5.388779775163597963e-01,5.419277682268551759e-16,4.791171325852214392e-16,2.853268892924413769e-01,-1.673504014299184644e-16,6.179347084551182272e-17,9.825966369801521720e-17,1.159739004093280878e-15,-5.797952593089780023e-16,1.040846805591320595e-15,1.440431235600883520e+04,1.440431235600883520e+04,1.440431235600883520e+04,1.440431235600883520e+04
1.604166666666666519e+00,2.654965441312668354e-16,-2.260610400488609394e-16,5.447990466877383753e-01,5.534382690386476487e-16,5.109895588110684118e-16,2.830962356355168352e-01,-1.431893784975149640e-16,4.971450608980344640e-17,1.199438526840990866e-16,1.159719197473835639e-15,-5.797853572672111384e-16,1.040835337093792662e-15,1.440322596672937652e+04,1.440322596672937652e+04,1.440322596672937652e+04,1.440322596672937652e+04
1.625000000000000000e+00,2.771221841349342988e-16,-2.151290420809668068e-16,5.506733780150973034e-01,5.619202343788258028e-16,5.373885512213361533e-16,2.808400579649926176e-01,-1.069511090511128445e-16,2.555808847649021306e-17,1.329536620762166269e-16,2.319151369122719203e-15,-1.739227433324617338e-15,2.081078937827399492e-16,1.440221380007179505e+04,1.440221380007179141e+04,1.440221380007179141e+04,1.440221380007179141e+04
1.645833333333333259e+00,2.888643142516410736e-16,-2.037298961009620407e-16,5.565004607978822904e-01,5.641526637533421277e-16,5.556795823928089542e-16,2.785603764935202786e-01,-7.071352725707295912e-17,-1.067550697292306393e-17,1.372892193109982612e-16,1.159659783532277776e-15,-1.739197729903606477e-15,2.081056007605079839e-16,1.440127317552383647e+04,1.440127317552383647e+04,1.440127317552383829e+04,1.440127317552383829e+04
1.666666666666666519e+00,3.005766797649971051e-16,-1.920166354336304564e-16,5.622798256249572635e-01,5.590629686856721547e-16,5.680123569384939389e-16,2.762591348214334941e-01,-4.655415473893019693e-17,-4.690848360634956572e-17,1.416247287747465748e-16,1.159639978265801367e-15,-1.739168026989886032e-15,2.081033077635415324e-16,1.440040149650632884e+04,1.440040149650632884e+04,1.440040149650632884e+04,1.440040149650632884e+04
1.687500000000000000e+00,3.121095994269834984e-16,-1.801001512874881791e-16,5.680110428046117876e-01,5.472382757298742342e-16,5.748768316082223917e-16,2.739382024412356231e-01,-1.031753567860221925e-17,-7.106318228597769414e-17,1.416231201338625486e-16,2.319072151267631279e-15,-5.796863466533864158e-16,-2.082569726781047343e-16,1.439959624789210466e+04,1.439959624789210466e+04,1.439959624789210466e+04,1.439959624789210284e+04
1.708333333333333259e+00,3.233561215132910547e-16,-1.681248551037031586e-16,5.736937208459435000e-01,5.321935732075661498e-16,5.733459934388884146e-16,2.715993771651289412e-01,3.195722533173969480e-17,-7.710104847321361322e-17,1.329473867717460434e-16,1.739306555995142988e-15,4.954249334482857216e-20,-6.246126654832023707e-16,1.439885499359198730e+04,1.439885499359198730e+04,1.439885499359198911e+04,1.439885499359198730e+04
1.729166666666666519e+00,3.342797719614417728e-16,-1.562628918050193563e-16,5.793275049900348250e-01,5.163207453802803985e-16,5.645435434878694610e-16,2.692443874777168400e-01,5.611481000766612355e-17,-8.313884592093932396e-17,1.069234835953811389e-16,5.798248732927735893e-16,-5.796764473177977168e-16,-1.873679745642190122e-15,1.439817537420645385e+04,1.439817537420645021e+04,1.439817537420645385e+04,1.439817537420645203e+04
1.750000000000000000e+00,3.448582170933806330e-16,-1.446186734533829633e-16,5.849120757893864209e-01,4.991318932646972492e-16,5.536915929950781975e-16,2.668748948159678780e-01,3.800024384515165710e-17,-8.313767629958819618e-17,8.306845011651168151e-17,-2.318814974079909122e-15,5.797854306248980738e-16,-4.164061444885159995e-16,1.439755510474172297e+04,1.439755510474172661e+04,1.439755510474172661e+04,1.439755510474172843e+04
1.770833333333333259e+00,3.550865033906270741e-16,-1.331404667966139188e-16,5.904471477341139973e-01,4.830178427118765035e-16,5.496215410696772081e-16,2.644924957784945962e-01,-4.269159352864972812e-18,-7.709774588057298387e-17,7.656190506662951702e-17,-1.739049383199625985e-15,4.953978595978049022e-20,-2.082225626116450841e-16,1.439699197238904890e+04,1.439699197238904890e+04,1.439699197238904708e+04,1.439699197238904890e+04
1.791666666666666519e+00,3.649857017945583994e-16,-1.216670520745572077e-16,5.959324679234557776e-01,4.671491091177071690e-16,5.525287457473623410e-16,2.620987242661561578e-01,-2.238255673377956740e-17,-8.313554338470206445e-17,5.921274790869735023e-17,1.582840756445919878e-19,-5.796764500251364932e-16,-1.457294230735777753e-15,1.439648383436571567e+04,1.439648383436571203e+04,1.439648383436571203e+04,1.439648383436571021e+04
1.812500000000000000e+00,3.745340887195714628e-16,-1.101132578464265248e-16,6.013678147811811758e-01,4.487936280215706512e-16,5.561670786306432313e-16,2.596950535559540696e-01,-4.262770454459194672e-18,-1.072896921165135209e-16,1.800994286142767089e-17,1.739336248267479090e-15,-1.739118527942516470e-15,-2.498173142316366544e-15,1.439602861581663092e+04,1.439602861581662728e+04,1.439602861581662728e+04,1.439602861581662546e+04
1.833333333333333259e+00,3.836413390859144403e-16,-9.853723329633203441e-17,6.067529968135304541e-01,4.244876996965953109e-16,5.538042916138660984e-16,2.572828983101480005e-01,3.801192152776204117e-17,-1.374821891489841205e-16,-3.620357937476653218e-17,2.319032531953100952e-15,-1.159362837416417476e-15,-2.706324610105780058e-15,1.439562430777501322e+04,1.439562430777501322e+04,1.439562430777501322e+04,1.439562430777501140e+04
1.854166666666666519e+00,3.921876510862686628e-16,-8.709977339360113966e-17,6.120878514083558652e-01,3.956459954675441137e-16,5.430989687501188990e-16,2.548636165224766881e-01,6.820819799438618677e-17,-1.435188866199702094e-16,-1.012591721337349324e-16,5.798149594271908827e-16,5.798349296737512853e-16,-3.539010765597762263e-15,1.439526896518092326e+04,1.439526896518092326e+04,1.439526896518092690e+04,1.439526896518092326e+04
1.875000000000000000e+00,4.001386941640081248e-16,-7.592914924579911705e-17,6.173722436741737596e-01,3.685126348545438265e-16,5.295149105279788878e-16,2.524385114033242949e-01,5.613225486895915982e-17,-1.133226066828163350e-16,-1.663140162236299836e-16,-1.739098898811146383e-15,2.319002993849564963e-15,-2.706255796315960296e-15,1.439496070495625645e+04,1.439496070495626009e+04,1.439496070495626009e+04,1.439496070495626009e+04
1.895833333333333259e+00,4.075991649647101686e-16,-6.500026900208167032e-17,6.226060653178717708e-01,3.489414091018609533e-16,5.205160975794891136e-16,2.500088332056330520e-01,3.197899634742342793e-17,-7.708811601390427776e-17,-2.183569643674990831e-16,-5.796172196552533355e-16,1.159511410793152628e-15,-2.289867990156326829e-15,1.439469770413490369e+04,1.439469770413490369e+04,1.439469770413490187e+04,1.439469770413490369e+04
1.916666666666666519e+00,4.147130924689633753e-16,-5.422308988472920502e-17,6.277892335598581619e-01,3.341518530294464895e-16,5.138589874038552270e-16,2.475757809933168963e-01,4.405905901625426016e-17,-7.708715286485766582e-17,-2.769049605102757784e-16,1.739296635205982524e-15,-1.159412347799459105e-15,-3.330737728081340175e-15,1.439447819804671781e+04,1.439447819804671235e+04,1.439447819804671235e+04,1.439447819804671235e+04
1.937500000000000000e+00,4.215002147039750214e-16,-4.362728206232308534e-17,6.329216900854719441e-01,3.166314013637055962e-16,5.023238861270769683e-16,2.451405043538919803e-01,7.425526658502812896e-17,-1.012413705159192541e-16,-3.072613145510142417e-16,1.159540941638076111e-15,-1.159392546758817677e-15,4.165208586482203327e-16,1.439430047855400881e+04,1.439430047855401790e+04,1.439430047855400881e+04,1.439430047855401790e+04
1.958333333333333259e+00,4.278743639269368093e-16,-3.332636419198950733e-17,6.380034000315080167e-01,2.948186630006615884e-16,4.862519499413645672e-16,2.427041050569924696e-01,8.029567452894707639e-17,-1.133175165004434077e-16,-2.855726334665323424e-16,-5.796568284938483987e-16,7.923187371221767014e-20,1.665590231652187194e-15,1.439416289233926545e+04,1.439416289233926909e+04,1.439416289233926727e+04,1.439416289233926909e+04
1.979166666666666519e+00,4.337808738338936421e-16,-2.335896159441291289e-17,6.430343510067485502e-01,2.725184442813076538e-16,4.710087698756362363e-16,2.402676386604025716e-01,6.821959372392682955e-17,-1.012382067021231262e-16,-2.421988874745157245e-16,-5.796469288162740020e-16,1.159531208450610433e-15,2.498287854402925584e-15,1.439406383924268266e+04,1.439406383924268630e+04,1.439406383924268448e+04,1.439406383924268448e+04
2.000000000000000000e+00,4.392561306927205227e-16,-1.368230231487059377e-17,6.480145521454228064e-01,2.537306311979918480e-16,4.584967440770545823e-16,2.378321160651916955e-01,5.010488958623817589e-17,-8.312034238283143410e-17,-1.858144402492882751e-16,-1.159363018272801884e-15,5.797854164149751094e-16,2.914618314663364579e-15,1.439400177064846503e+04,1.439400177064846503e+04,1.439400177064846503e+04,1.439400177064846685e+04
2.020833333333333037e+00,4.443734130848871502e-16,-4.223529697359039487e-18,6.529440331925508989e-01,2.379187556391559668e-16,4.503259220026386879e-16,2.353985050214977282e-01,2.595169962487277996e-17,-7.104158268566374153e-17,-1.684642632285602314e-16,-1.159343218074635898e-15,5.797755145413100671e-16,-1.248993674553568958e-15,1.439397518791838957e+04,1.439397518791838047e+04,1.439397518791838957e+04,1.439397518791838047e+04
2.041666666666666519e+00,4.491809995268839768e-16,5.107292347598451380e-18,6.578228436201608575e-01,2.233755040395016122e-16,4.452768609651733715e-16,2.329677315864640275e-01,3.803189960925359120e-17,-8.311834757252931074e-17,-2.074960324302349596e-16,2.319032515575555360e-15,-1.739138343023367596e-15,-2.498053875014199227e-15,1.439398264087153620e+04,1.439398264087153075e+04,1.439398264087152893e+04,1.439398264087152893e+04
2.062500000000000000e+00,4.536414992308565129e-16,1.427946657628850133e-17,6.626510517733936734e-01,2.036617586990452248e-16,4.336908100176937111e-16,2.305406815357941841e-01,8.634466445725188848e-17,-1.193500869898491902e-16,-2.617070699446563308e-16,2.318992909945016108e-15,-1.739108641123886997e-15,-2.706205344117751275e-15,1.439402272630894004e+04,1.439402272630893822e+04,1.439402272630893822e+04,1.439402272630893822e+04
2.083333333333333037e+00,4.576193403084955443e-16,2.311289636775247269e-17,6.674287440455499709e-01,1.775084812045900862e-16,4.132256232977975266e-16,2.281182017303487186e-01,1.165401154724230797e-16,-1.374647189003104272e-16,-2.747153339997248719e-16,5.797753380957912193e-16,9.902716342102594340e-20,1.457404348715483176e-15,1.439409408658189386e+04,1.439409408658190659e+04,1.439409408658189932e+04,1.439409408658190659e+04
2.104166666666666519e+00,4.610282309280431278e-16,3.147046530034144008e-17,6.721560240811510489e-01,1.497450632689252504e-16,3.887106820968958589e-16,2.257011014391701598e-01,1.286186652064007486e-16,-1.374626558520229118e-16,-2.443529106758303364e-16,5.797654363942487239e-16,9.902547218420426291e-20,1.457388290407882024e-15,1.439419540820283510e+04,1.439419540820283692e+04,1.439419540820283692e+04,1.439419540820283510e+04
2.125000000000000000e+00,4.638572920158699510e-16,3.929331270229907852e-17,6.768330120061243349e-01,1.216887571493025298e-16,3.620484169840839080e-16,2.232901536202822612e-01,1.346581790825011102e-16,-1.434994224131592532e-16,-2.074852163969796208e-16,2.954589678233340296e-20,-5.796269651840542336e-16,2.081909213482135461e-15,1.439432542049743461e+04,1.439432542049743461e+04,1.439432542049743461e+04,1.439432542049743643e+04
2.145833333333333037e+00,4.660854186317367174e-16,4.655047467768880791e-17,6.814598436842450591e-01,9.181726743307017378e-17,3.345644402885570326e-16,2.208860961605725870e-01,1.333798562513141054e-16,-1.584739489153764239e-16,-2.185863902781548719e-16,-5.796964435728482499e-16,-1.159343054981531250e-15,-2.914409575527859212e-15,1.439448289429708529e+04,1.439448289429707256e+04,1.439448289429708529e+04,1.439448289429707438e+04
2.166666666666666519e+00,4.676540787962603532e-16,5.324743527839002622e-17,6.860366699989960404e-01,5.814965866349955832e-17,3.088901387948032573e-16,2.184896330760306149e-01,1.152641205650055711e-16,-1.765878934042017972e-16,-2.814714570991680399e-16,-1.159412532183737555e-15,-5.795972661592778308e-16,-3.122556457045326061e-15,1.439466664067029888e+04,1.439466664067029888e+04,1.439466664067030069e+04,1.439466664067029888e+04
2.187500000000000000e+00,4.684907271430557377e-16,5.945229714861919340e-17,6.905636561600319023e-01,2.209055427128343155e-17,2.875572859434302897e-16,2.161014356735759534e-01,9.110989907263762321e-17,-1.765850741894679519e-16,-3.161648658890209529e-16,-1.159392731139947388e-15,5.798646104311212388e-16,-2.080161390863894997e-16,1.439487550969224321e+04,1.439487550969225231e+04,1.439487550969224503e+04,1.439487550969225049e+04
2.208333333333333037e+00,4.685854875419372378e-16,6.526354280329945614e-17,6.950409810334604588e-01,-1.260315211331196157e-17,2.711029250643758061e-16,2.137221436756767123e-01,6.695609009849268235e-17,-1.645046646310526478e-16,-3.031502302416582333e-16,-1.159372930434329665e-15,5.798547072049400736e-16,1.457418102804630147e-15,1.439510838925107055e+04,1.439510838925107419e+04,1.439510838925107055e+04,1.439510838925107419e+04
2.229166666666666519e+00,4.679800216293697765e-16,7.077996153919173183e-17,6.994688364951773263e-01,-4.544342758886252867e-17,2.589416430997894087e-16,2.113523663089229010e-01,5.488035278390560601e-17,-1.645021205364677169e-16,-2.684504500416930457e-16,9.884786318224439080e-20,-5.796071737821696307e-16,1.873760031815426009e-15,1.439536420389016894e+04,1.439536420389016894e+04,1.439536420389016530e+04,1.439536420389016712e+04
2.250000000000000000e+00,4.666810224352181860e-16,7.605764832787927402e-17,7.038474268065167960e-01,-7.965079968610323699e-17,2.475600631127922907e-16,2.089926833576842835e-01,6.092124167099339388e-17,-1.765771668771616703e-16,-2.207398571057397338e-16,5.798248351400379370e-16,-5.795972749526239611e-16,2.706455360861821714e-15,1.439564191368524553e+04,1.439564191368524735e+04,1.439564191368524553e+04,1.439564191368524735e+04
2.270833333333333037e+00,4.646425192018985089e-16,8.107797899638291459e-17,7.081769680114997634e-01,-1.165919724205056012e-16,2.336889305779663400e-16,2.066436461839508965e-01,8.507848173296730358e-17,-1.946908365681911251e-16,-2.250746657337004229e-16,1.739266910523220597e-15,-1.159313365257165977e-15,-3.122586284605984883e-15,1.439594051315528122e+04,1.439594051315526849e+04,1.439594051315527940e+04,1.439594051315526667e+04
2.291666666666666519e+00,4.617930165381533415e-16,8.575055140507825794e-17,7.124576873549874900e-01,-1.575849048719914109e-16,2.138628699601122977e-16,2.043057787144198501e-01,1.152740700428050515e-16,-2.128041625263740524e-16,-2.662743014288316615e-16,1.159511217462967476e-15,-5.795675769419689769e-16,-8.325829475233129832e-16,1.439625903020621990e+04,1.439625903020622536e+04,1.439625903020622172e+04,1.439625903020622718e+04
2.312500000000000000e+00,4.580605399956708237e-16,8.995539919419398173e-17,7.166898227210699579e-01,-2.006391426958116444e-16,1.894817671661423569e-16,2.019795783958608926e-01,1.186675904210147975e-16,-2.036230860857849010e-16,-2.678339051626466931e-16,-1.159412541126342479e-15,1.739346277071443456e-15,4.165001886433362227e-16,1.439659652510675551e+04,1.439659652510676096e+04,1.439659652510676096e+04,1.439659652510676096e+04
2.333333333333333037e+00,4.534688657182633347e-16,9.366392634492686019e-17,7.208736220910363368e-01,-2.391462490143510718e-16,1.671616137493410240e-16,1.996655171197622425e-01,1.005521983165342204e-16,-1.734258443203119699e-16,-2.526512602020822943e-16,-5.796667511173691152e-16,1.159590582655727718e-15,1.041032580670136359e-15,1.439695208949486732e+04,1.439695208949486732e+04,1.439695208949486550e+04,1.439695208949486732e+04
2.354166666666666519e+00,4.481324005922650417e-16,9.693946921926894758e-17,7.250093430202994016e-01,-2.725295450830847495e-16,1.475247419027039945e-16,1.973640421172277448e-01,9.451474036614590990e-17,-1.553067430489764372e-16,-2.287946657561161907e-16,6.913769469937792426e-20,5.798447896060692873e-16,1.249200103860631674e-15,1.439732484541454505e+04,1.439732484541454505e+04,1.439732484541454323e+04,1.439732484541454505e+04
2.375000000000000000e+00,4.421310466789035822e-16,9.981393010018557773e-17,7.290972521336636092e-01,-3.035222479010188604e-16,1.284234425983629634e-16,1.950755768250670152e-01,9.451618072248576955e-17,-1.553044055692702555e-16,-1.940956663016960813e-16,6.913651393026253319e-20,-5.796170912116625142e-16,2.081902314576790072e-15,1.439771394438167226e+04,1.439771394438167226e+04,1.439771394438167044e+04,1.439771394438167408e+04
2.395833333333333037e+00,4.354764715085908949e-16,1.022921884556626418e-16,7.331376246383451978e-01,-3.354926798862860113e-16,1.095957762717666246e-16,1.928005217239903701e-01,8.386752117175674252e-17,-1.601335459217388582e-16,-1.958288683314698227e-16,-1.739108831561910066e-15,1.187967522885788389e-19,-2.289879493152271749e-15,1.439811856647816603e+04,1.439811856647815694e+04,1.439811856647816967e+04,1.439811856647815875e+04
2.416666666666666519e+00,4.281527777382577445e-16,1.044171581184938550e-16,7.371307438541743196e-01,-3.672694329780620876e-16,9.557294728115493955e-17,1.905392551497944176e-01,4.763639657130040676e-17,-1.480534118621535596e-16,-2.370288227821735667e-16,-1.739079130166441574e-15,1.159570772653477312e-15,-1.665317281070759864e-15,1.439853791947359787e+04,1.439853791947360151e+04,1.439853791947359969e+04,1.439853791947359969e+04
2.437500000000000000e+00,4.202032626826110530e-16,1.063248363579752373e-16,7.410769007604233183e-01,-3.949465398982676300e-16,8.857964319023325447e-17,1.882921340783944852e-01,1.744472031882243694e-17,-1.178570641472939362e-16,-2.218464328243790098e-16,-1.159323440313198136e-15,1.739276957872205370e-15,3.122817924015272137e-15,1.439897123797350105e+04,1.439897123797351378e+04,1.439897123797350105e+04,1.439897123797351196e+04
2.458333333333333037e+00,4.117439600993897569e-16,1.081457102501087819e-16,7.449763935587261354e-01,-4.161307925991073808e-16,8.700547800362806347e-17,1.860594948855352482e-01,-6.707645108758859425e-18,-8.766126651947310766e-17,-2.023273230054344381e-16,-1.159303640790964856e-15,1.159521264640358831e-15,-1.248975352969427540e-15,1.439941778259346574e+04,1.439941778259345483e+04,1.439941778259346393e+04,1.439941778259345483e+04
2.479166666666666519e+00,4.028965151139045487e-16,1.099775285912238855e-16,7.488295272515699263e-01,-4.330675860433663121e-16,8.884902066276480084e-17,1.838416540819841904e-01,-6.654501788658036622e-19,-8.766009808369606698e-17,-2.348531050083543260e-16,1.739346103218274681e-15,-1.159402494120542177e-15,-1.873498572427015411e-15,1.439987683915828165e+04,1.439987683915827802e+04,1.439987683915827620e+04,1.439987683915827802e+04
2.500000000000000000e+00,3.936789167683342389e-16,1.118087836030235121e-16,7.526366132358556227e-01,-4.524469212729361781e-16,8.546680443824626478e-17,1.816389090249879712e-01,4.764827668726717496e-17,-1.057752808773431947e-16,-2.175021958918439683e-16,2.898768375700619578e-15,-5.796567042831566106e-16,3.539175907694893215e-15,1.440034771792552056e+04,1.440034771792553329e+04,1.440034771792552056e+04,1.440034771792553147e+04
2.520833333333333037e+00,3.840283687329838248e-16,1.134613088543498892e-16,7.563979689110406079e-01,-4.739275457614594667e-16,7.153453308156833650e-17,1.794515386067467300e-01,9.596110967016276774e-17,-9.973487037209265430e-17,-1.871404740335494292e-16,1.739266891112702237e-15,1.159531162287387902e-15,-6.244429631660754992e-16,1.440082975283259657e+04,1.440082975283258929e+04,1.440082975283260021e+04,1.440082975283258929e+04
2.541666666666666519e+00,3.739570562272011841e-16,1.147368675024318745e-16,7.601139173013929939e-01,-4.921369139098673062e-16,5.037198135388460578e-17,1.772798039206381904e-01,1.080402088530480626e-16,-7.557817744033649753e-17,-2.001496307620756763e-16,-5.796667688423106298e-16,1.159511359217571795e-15,-6.244360827850812768e-16,1.440132230076665110e+04,1.440132230076665110e+04,1.440132230076665473e+04,1.440132230076665473e+04
2.562500000000000000e+00,3.635572530515775962e-16,1.155648044656471153e-16,7.637847866919009743e-01,-5.054626194818883404e-16,2.950069814312075983e-17,1.751239489059003007e-01,9.596392095920325897e-17,-5.142189706901184361e-17,-2.218327848183717176e-16,-5.796568689949699150e-16,1.159491556485962643e-15,-1.457145177419788330e-15,1.440182474085678041e+04,1.440182474085677859e+04,1.440182474085678041e+04,1.440182474085677859e+04
2.583333333333333037e+00,3.529307083513271209e-16,1.159833475029642947e-16,7.674109102773960522e-01,-5.139040502172656931e-16,1.107018187291430726e-17,1.729842009714581963e-01,8.388783931041687021e-17,-2.726602925107276874e-17,-2.521898087700191172e-16,-5.796469693167037858e-16,1.159471754092554924e-15,-1.457129121967848272e-15,1.440233647378758542e+04,1.440233647378758542e+04,1.440233647378758542e+04,1.440233647378758542e+04
2.604166666666666519e+00,3.421820337471865270e-16,1.160476220928081608e-16,7.709926258244617081e-01,-5.168744280134919935e-16,-4.040145298585901976e-18,1.708607715995606180e-01,5.369547518059640194e-17,8.967085168906600121e-18,-2.391757948936732756e-16,-2.318815036702601042e-15,2.318903929967403040e-15,2.706466808006636608e-15,1.440285692113369259e+04,1.440285692113370351e+04,1.440285692113369441e+04,1.440285692113370351e+04
2.625000000000000000e+00,3.314529028796057465e-16,1.158704689553693480e-16,7.745302753457145029e-01,-5.120276879929657685e-16,-1.187216931896708049e-17,1.687538569298689395e-01,2.350372982633157527e-17,3.916068245037386826e-17,-1.784543100288832878e-16,-5.795974678911865121e-16,5.796863596378239233e-16,3.122794974461876460e-15,1.440338552471444382e+04,1.440338552471444200e+04,1.440338552471443836e+04,1.440338552471444200e+04
2.645833333333333037e+00,3.208706802334948914e-16,1.155744480541208578e-16,7.780242047860559396e-01,-5.037992286532130412e-16,-1.678931646982202066e-17,1.666636383246213882e-01,3.332141112257391442e-17,3.698613748429127428e-17,-1.642275959307889604e-16,1.159590397667688460e-15,-1.159501507439190196e-15,-1.457177296004927579e-15,1.440392174596812947e+04,1.440392174596811674e+04,1.440392174596812583e+04,1.440392174596811674e+04
2.666666666666666519e+00,3.104406290657325122e-16,1.151422366846251838e-16,7.814747637205080588e-01,-4.982675704447741283e-16,-2.548492203683901611e-17,1.645902829154770319e-01,5.747933811421492301e-17,1.283006235659692633e-17,-1.945852890159403523e-16,1.159570593586219971e-15,-1.159481704875834622e-15,-1.457161240199090911e-15,1.440446506534531545e+04,1.440446506534531545e+04,1.440446506534531545e+04,1.440446506534531545e+04
2.687500000000000000e+00,3.000777673372495097e-16,1.144807990741132825e-16,7.848823050632567355e-01,-4.970363482043503878e-16,-3.848232456718200946e-17,1.625339441326215661e-01,7.286722526745735668e-17,1.235209946502716427e-18,-2.147076120689373891e-16,9.881191291478362907e-20,-9.924720616664707888e-21,-8.326082033652465656e-16,1.440501498172054926e+04,1.440501498172055290e+04,1.440501498172055290e+04,1.440501498172055290e+04
2.708333333333333037e+00,2.897298848548643327e-16,1.135275855564734366e-16,7.882471847875391902e-01,-4.957661137930905184e-16,-5.224331511620841300e-17,1.604947622167016419e-01,4.143543263722734434e-17,2.442414570064291730e-17,-2.140117691792734554e-16,-3.478257123564828872e-15,2.318894031309004392e-15,6.246539268146548885e-16,1.440557101182186489e+04,1.440557101182187034e+04,1.440557101182187216e+04,1.440557101182187216e+04
2.729166666666666519e+00,2.794745320318531146e-16,1.123856508413642649e-16,7.915697616560226635e-01,-4.874964600947720529e-16,-5.534912653649859515e-17,1.584728647141346869e-01,-1.894997950080617740e-17,6.065636633601125189e-17,-2.075038229001366991e-16,-2.318745742169904347e-15,1.159402450113510002e-15,1.100629042548320564e-19,1.440613268967767181e+04,1.440613268967766817e+04,1.440613268967766817e+04,1.440613268967766817e+04
2.750000000000000000e+00,2.694542230423179100e-16,1.112906678249126849e-16,7.948503969613356368e-01,-4.741325398464115539e-16,-4.904723615312353141e-17,1.564683669563231849e-01,-3.177002317723267313e-17,6.862687191721564639e-17,-2.106251423465931236e-16,1.978144230929862950e-19,-5.797953176531847866e-16,-8.326059132483556397e-16,1.440669956608033317e+04,1.440669956608032953e+04,1.440669956608032771e+04,1.440669956608032771e+04
2.770833333333333037e+00,2.597150683864954668e-16,1.103358310380614199e-16,7.980894542764190858e-01,-4.612174493964315700e-16,-4.261722994485257298e-17,1.544813725232867807e-01,-3.176590207860975847e-17,5.654790594601334667e-17,-2.279710033098223216e-16,1.978110447164783068e-19,-5.797854156104213942e-16,-8.325967392384953666e-16,1.440727120806609310e+04,1.440727120806609310e+04,1.440727120806609310e+04,1.440727120806609310e+04
2.791666666666666519e+00,2.502254301536499488e-16,1.095074392003598859e-16,8.012872992143800221e-01,-4.498660500234945186e-16,-3.726594308708250980e-17,1.525119736922087021e-01,-2.603734942759675205e-17,5.171642682852085305e-17,-2.154791892705533625e-16,-5.795281812986327857e-16,-5.797755137367699597e-16,2.081918346959896932e-15,1.440784719841071455e+04,1.440784719841072183e+04,1.440784719841071455e+04,1.440784719841072183e+04
2.812500000000000000e+00,2.409547667513848357e-16,1.087935067969503593e-16,8.044442991975375712e-01,-4.406652878690480938e-16,-3.072409410935439886e-17,1.505602518713756999e-01,-4.414957967979326212e-17,3.359904386119733354e-17,-2.241509733383250243e-16,-1.159244272783191893e-15,-1.159491600997258374e-15,-2.914400442150733910e-15,1.440842713514038769e+04,1.440842713514037496e+04,1.440842713514038769e+04,1.440842713514037678e+04
2.833333333333333037e+00,2.318384448831407787e-16,1.082534396979705812e-16,8.075608232353623794e-01,-4.347207220617852130e-16,-2.108635714171496656e-17,1.486262780199776867e-01,-4.599078440384977423e-17,3.166626722588258712e-17,-2.369004062521992847e-16,2.275033170385353457e-19,1.159432157257031427e-15,1.457390538400558979e-15,1.440901063105740650e+04,1.440901063105741923e+04,1.440901063105740832e+04,1.440901063105741559e+04
2.854166666666666519e+00,2.228565271164789223e-16,1.079125594451315537e-16,8.106372417110178086e-01,-4.272304050921890151e-16,-1.148185063738456786e-17,1.467101130542160792e-01,-5.202487436607473182e-17,3.770440884788270178e-17,-1.956955948063003907e-16,-5.794984895334105917e-16,-5.797656110170173797e-16,2.498269448919988646e-15,1.440959731328036469e+04,1.440959731328036469e+04,1.440959731328036287e+04,1.440959731328036651e+04
2.875000000000000000e+00,2.140321908640380914e-16,1.077934736195510769e-16,8.136739261762255815e-01,-4.199841701170090376e-16,9.102195826293230438e-19,1.448118082401563811e-01,-8.221414519349139796e-17,3.770372090802910875e-17,-1.891878398689637133e-16,-2.318666559455122034e-15,5.796962684484618771e-16,-1.873516946521140643e-15,1.441018682279799214e+04,1.441018682279798304e+04,1.441018682279799577e+04,1.441018682279798486e+04
