t,x,y,z,vx,vy,vz,roll,pitch,yaw,wx,wy,wz,rpm0,rpm1,rpm2,rpm3
0.000000000000000000e+00,0.000000000000000000e+00,0.000000000000000000e+00,1.000000000000000056e-01,0.000000000000000000e+00,0.000000000000000000e+00,0.000000000000000000e+00,0.000000000000000000e+00,0.000000000000000000e+00,0.000000000000000000e+00,0.000000000000000000e+00,0.000000000000000000e+00,0.000000000000000000e+00,1.498348081686096521e+04,1.498348081686096339e+04,1.498348081686096339e+04,1.498348081686096521e+04
2.083333333333333218e-02,-2.579960166413799310e-39,-1.270571729198058085e-28,9.975420721582732575e-02,-2.476760807122463981e-36,-1.148499779600109239e-25,-3.623099796805226425e-02,5.401317972145386322e-19,0.000000000000000000e+00,0.000000000000000000e+00,1.159459898698212099e-16,-2.318919797396424198e-16,2.693600265336783261e-35,1.503532198464626708e+04,1.503532198464626345e+04,1.503532198464626345e+04,1.503532198464626345e+04
4.166666666666666435e-02,0.000000000000000000e+00,0.000000000000000000e+00,9.991484405809418490e-02,0.000000000000000000e+00,0.000000000000000000e+00,-4.087471471142605645e-02,0.000000000000000000e+00,0.000000000000000000e+00,0.000000000000000000e+00,0.000000000000000000e+00,0.000000000000000000e+00,0.000000000000000000e+00,1.504190739167658285e+04,1.504190739167657921e+04,1.504190739167657921e+04,1.504190739167658285e+04
6.250000000000000000e-02,0.000000000000000000e+00,-3.424530062499819299e-28,9.975494786902201760e-02,0.000000000000000000e+00,-3.080380352575054631e-25,-3.587548647316122358e-02,1.469317342128764412e-18,0.000000000000000000e+00,0.000000000000000000e+00,-1.159459898698212099e-16,-6.956759392189272594e-16,2.198215474278013730e-34,1.503502361358273811e+04,1.503502361358273447e+04,1.503502361358273447e+04,1.503502361358273447e+04
8.333333333333332871e-02,0.000000000000000000e+00,0.000000000000000000e+00,9.991484405809418490e-02,0.000000000000000000e+00,0.000000000000000000e+00,-4.087471471142605645e-02,0.000000000000000000e+00,0.000000000000000000e+00,0.000000000000000000e+00,0.000000000000000000e+00,0.000000000000000000e+00,0.000000000000000000e+00,1.504211453455835544e+04,1.504211453455835544e+04,1.504211453455835544e+04,1.504211453455835544e+04
1.041666666666666574e-01,0.000000000000000000e+00,0.000000000000000000e+00,9.975495050002526620e-02,0.000000000000000000e+00,0.000000000000000000e+00,-3.587422359880640399e-02,0.000000000000000000e+00,0.000000000000000000e+00,0.000000000000000000e+00,0.000000000000000000e+00,0.000000000000000000e+00,0.000000000000000000e+00,1.503522905525103488e+04,1.503522905525103488e+04,1.503522905525103488e+04,1.503522905525103488e+04
1.250000000000000000e-01,0.000000000000000000e+00,0.000000000000000000e+00,9.991484405809418490e-02,0.000000000000000000e+00,0.000000000000000000e+00,-4.087471471142605645e-02,0.000000000000000000e+00,0.000000000000000000e+00,0.000000000000000000e+00,0.000000000000000000e+00,0.000000000000000000e+00,0.000000000000000000e+00,1.504232167458723961e+04,1.504232167458724325e+04,1.504232167458724325e+04,1.504232167458724325e+04
1.458333333333333148e-01,0.000000000000000000e+00,-1.703854803754518473e-28,9.975495313102850092e-02,0.000000000000000000e+00,-1.532571592281063172e-25,-3.587296072446125028e-02,7.310983627518147377e-19,0.000000000000000000e+00,0.000000000000000000e+00,-2.318919797396424198e-16,2.318919797396424198e-16,1.249079467579770623e-16,1.503543449411183428e+04,1.503543449411184156e+04,1.503543449411184156e+04,1.503543449411183974e+04
1.666666666666666574e-01,0.000000000000000000e+00,0.000000000000000000e+00,9.991484405809418490e-02,0.000000000000000000e+00,0.000000000000000000e+00,-4.087471471142605645e-02,0.000000000000000000e+00,0.000000000000000000e+00,0.000000000000000000e+00,0.000000000000000000e+00,0.000000000000000000e+00,0.000000000000000000e+00,1.504252881176336450e+04,1.504252881176336450e+04,1.504252881176336450e+04,1.504252881176336450e+04
1.875000000000000000e-01,0.000000000000000000e+00,0.000000000000000000e+00,9.975495576203172177e-02,0.000000000000000000e+00,0.000000000000000000e+00,-3.587169785012574164e-02,0.000000000000000000e+00,0.000000000000000000e+00,0.000000000000000000e+00,0.000000000000000000e+00,0.000000000000000000e+00,0.000000000000000000e+00,1.503563993016525819e+04,1.503563993016526183e+04,1.503563993016526183e+04,1.503563993016526183e+04
2.083333333333333148e-01,0.000000000000000000e+00,0.000000000000000000e+00,9.991484405809418490e-02,0.000000000000000000e+00,0.000000000000000000e+00,-4.087471471142605645e-02,0.000000000000000000e+00,0.000000000000000000e+00,0.000000000000000000e+00,0.000000000000000000e+00,0.000000000000000000e+00,0.000000000000000000e+00,1.504273594608683379e+04,1.504273594608683379e+04,1.504273594608683379e+04,1.504273594608683379e+04
2.291666666666666574e-01,0.000000000000000000e+00,0.000000000000000000e+00,9.975495839303491485e-02,0.000000000000000000e+00,0.000000000000000000e+00,-3.587043497579990581e-02,0.000000000000000000e+00,0.000000000000000000e+00,0.000000000000000000e+00,0.000000000000000000e+00,0.000000000000000000e+00,0.000000000000000000e+00,1.503584536341141938e+04,1.503584536341141938e+04,1.503584536341141938e+04,1.503584536341141938e+04
2.500000000000000000e-01,0.000000000000000000e+00,0.000000000000000000e+00,9.991484405809418490e-02,0.000000000000000000e+00,0.000000000000000000e+00,-4.087471471142605645e-02,0.000000000000000000e+00,0.000000000000000000e+00,0.000000000000000000e+00,0.000000000000000000e+00,0.000000000000000000e+00,0.000000000000000000e+00,1.504294307755777481e+04,1.504294307755777299e+04,1.504294307755777299e+04,1.504294307755777299e+04
2.708333333333333148e-01,0.000000000000000000e+00,-6.930272943321033401e-29,9.975496102403808019e-02,0.000000000000000000e+00,-6.233267548934218534e-26,-3.586917210148372198e-02,2.973969318393968460e-19,0.000000000000000000e+00,0.000000000000000000e+00,-7.375384568899662043e-36,-1.159459898698212099e-16,-8.327196450531804565e-17,1.503605079385042518e+04,1.503605079385042518e+04,1.503605079385042518e+04,1.503605079385042518e+04
2.916666666666666297e-01,0.000000000000000000e+00,0.000000000000000000e+00,9.991484405809418490e-02,0.000000000000000000e+00,0.000000000000000000e+00,-4.087471471142605645e-02,0.000000000000000000e+00,0.000000000000000000e+00,0.000000000000000000e+00,0.000000000000000000e+00,0.000000000000000000e+00,0.000000000000000000e+00,1.504315020617629489e+04,1.504315020617629489e+04,1.504315020617629489e+04,1.504315020617629489e+04
3.125000000000000000e-01,0.000000000000000000e+00,0.000000000000000000e+00,9.975496365504123164e-02,0.000000000000000000e+00,0.000000000000000000e+00,-3.586790922717721791e-02,0.000000000000000000e+00,0.000000000000000000e+00,0.000000000000000000e+00,0.000000000000000000e+00,0.000000000000000000e+00,0.000000000000000000e+00,1.503625622148239381e+04,1.503625622148239381e+04,1.503625622148239381e+04,1.503625622148239381e+04
3.333333333333333148e-01,0.000000000000000000e+00,0.000000000000000000e+00,9.991484405809418490e-02,0.000000000000000000e+00,0.000000000000000000e+00,-4.087471471142605645e-02,0.000000000000000000e+00,0.000000000000000000e+00,0.000000000000000000e+00,0.000000000000000000e+00,0.000000000000000000e+00,0.000000000000000000e+00,1.504335733194252134e+04,1.504335733194252134e+04,1.504335733194252134e+04,1.504335733194252134e+04
3.541666666666666297e-01,0.000000000000000000e+00,0.000000000000000000e+00,9.975496628604436922e-02,0.000000000000000000e+00,0.000000000000000000e+00,-3.586664635288035891e-02,0.000000000000000000e+00,0.000000000000000000e+00,0.000000000000000000e+00,0.000000000000000000e+00,0.000000000000000000e+00,0.000000000000000000e+00,1.503646164630743988e+04,1.503646164630744352e+04,1.503646164630744352e+04,1.503646164630744352e+04
3.750000000000000000e-01,0.000000000000000000e+00,0.000000000000000000e+00,9.991484405809418490e-02,0.000000000000000000e+00,0.000000000000000000e+00,-4.087471471142605645e-02,0.000000000000000000e+00,0.000000000000000000e+00,0.000000000000000000e+00,0.000000000000000000e+00,0.000000000000000000e+00,0.000000000000000000e+00,1.504356445485656695e+04,1.504356445485656877e+04,1.504356445485656877e+04,1.504356445485656877e+04
3.958333333333333148e-01,-1.289980083206899655e-39,-1.321874524832428104e-28,9.975496891704747904e-02,-6.191899636219201142e-37,-1.188865828402633710e-25,-3.586538347859313108e-02,5.673084009225078466e-19,0.000000000000000000e+00,0.000000000000000000e+00,-2.318919797396424198e-16,1.159459898698212099e-16,8.327196450531804565e-17,1.503666706832568889e+04,1.503666706832568525e+04,1.503666706832568525e+04,1.503666706832568525e+04
4.166666666666666297e-01,0.000000000000000000e+00,0.000000000000000000e+00,9.991484405809418490e-02,0.000000000000000000e+00,0.000000000000000000e+00,-4.087471471142605645e-02,0.000000000000000000e+00,0.000000000000000000e+00,0.000000000000000000e+00,0.000000000000000000e+00,0.000000000000000000e+00,0.000000000000000000e+00,1.504377157491855542e+04,1.504377157491855542e+04,1.504377157491855542e+04,1.504377157491855542e+04
4.375000000000000000e-01,0.000000000000000000e+00,0.000000000000000000e+00,9.975497154805056110e-02,0.000000000000000000e+00,0.000000000000000000e+00,-3.586412060431558996e-02,0.000000000000000000e+00,0.000000000000000000e+00,0.000000000000000000e+00,0.000000000000000000e+00,0.000000000000000000e+00,0.000000000000000000e+00,1.503687248753723907e+04,1.503687248753723725e+04,1.503687248753723725e+04,1.503687248753723725e+04
4.583333333333333148e-01,0.000000000000000000e+00,0.000000000000000000e+00,9.991484405809418490e-02,0.000000000000000000e+00,0.000000000000000000e+00,-4.087471471142605645e-02,0.000000000000000000e+00,0.000000000000000000e+00,0.000000000000000000e+00,0.000000000000000000e+00,0.000000000000000000e+00,0.000000000000000000e+00,1.504397869212859769e+04,1.504397869212859950e+04,1.504397869212859950e+04,1.504397869212859950e+04
4.791666666666666297e-01,0.000000000000000000e+00,-1.274592842309431087e-28,9.975497417905362929e-02,0.000000000000000000e+00,-1.146301565235424497e-25,-3.586285773004768002e-02,5.470525333192132350e-19,0.000000000000000000e+00,0.000000000000000000e+00,-2.318919797396424198e-16,1.159459898698212099e-16,4.163598225265902282e-17,1.503707790394221593e+04,1.503707790394221229e+04,1.503707790394221229e+04,1.503707790394221229e+04
5.000000000000000000e-01,0.000000000000000000e+00,0.000000000000000000e+00,9.991484405809418490e-02,0.000000000000000000e+00,0.000000000000000000e+00,-4.087471471142605645e-02,0.000000000000000000e+00,0.000000000000000000e+00,0.000000000000000000e+00,0.000000000000000000e+00,0.000000000000000000e+00,0.000000000000000000e+00,1.504418580648681564e+04,1.504418580648681564e+04,1.504418580648681564e+04,1.504418580648681564e+04
5.208333333333332593e-01,0.000000000000000000e+00,0.000000000000000000e+00,9.975497681005668360e-02,0.000000000000000000e+00,0.000000000000000000e+00,-3.586159485578945677e-02,0.000000000000000000e+00,0.000000000000000000e+00,0.000000000000000000e+00,0.000000000000000000e+00,0.000000000000000000e+00,0.000000000000000000e+00,1.503728331754072860e+04,1.503728331754072860e+04,1.503728331754072860e+04,1.503728331754072860e+04
5.416666666666666297e-01,0.000000000000000000e+00,0.000000000000000000e+00,9.991484405809418490e-02,0.000000000000000000e+00,0.000000000000000000e+00,-4.087471471142605645e-02,0.000000000000000000e+00,0.000000000000000000e+00,0.000000000000000000e+00,0.000000000000000000e+00,0.000000000000000000e+00,0.000000000000000000e+00,1.504439291799332568e+04,1.504439291799332568e+04,1.504439291799332568e+04,1.504439291799332568e+04
5.625000000000000000e-01,0.000000000000000000e+00,0.000000000000000000e+00,9.975497944105971015e-02,0.000000000000000000e+00,0.000000000000000000e+00,-3.586033198154088553e-02,0.000000000000000000e+00,0.000000000000000000e+00,0.000000000000000000e+00,0.000000000000000000e+00,0.000000000000000000e+00,0.000000000000000000e+00,1.503748872833290079e+04,1.503748872833289715e+04,1.503748872833289715e+04,1.503748872833289715e+04
5.833333333333332593e-01,0.000000000000000000e+00,0.000000000000000000e+00,9.991484405809418490e-02,0.000000000000000000e+00,0.000000000000000000e+00,-4.087471471142605645e-02,0.000000000000000000e+00,0.000000000000000000e+00,0.000000000000000000e+00,0.000000000000000000e+00,0.000000000000000000e+00,0.000000000000000000e+00,1.504460002664824788e+04,1.504460002664824788e+04,1.504460002664824788e+04,1.504460002664824788e+04
6.041666666666666297e-01,0.000000000000000000e+00,0.000000000000000000e+00,9.975498207206270895e-02,0.000000000000000000e+00,0.000000000000000000e+00,-3.585906910730195241e-02,0.000000000000000000e+00,0.000000000000000000e+00,0.000000000000000000e+00,0.000000000000000000e+00,0.000000000000000000e+00,0.000000000000000000e+00,1.503769413631883799e+04,1.503769413631883617e+04,1.503769413631883617e+04,1.503769413631883617e+04
6.250000000000000000e-01,0.000000000000000000e+00,0.000000000000000000e+00,9.991484405809418490e-02,0.000000000000000000e+00,0.000000000000000000e+00,-4.087471471142605645e-02,0.000000000000000000e+00,0.000000000000000000e+00,0.000000000000000000e+00,0.000000000000000000e+00,0.000000000000000000e+00,0.000000000000000000e+00,1.504480713245169682e+04,1.504480713245169318e+04,1.504480713245169318e+04,1.504480713245169318e+04
6.458333333333332593e-01,0.000000000000000000e+00,-1.785124461468828431e-28,9.975498470306570775e-02,0.000000000000000000e+00,-1.605334520787709919e-25,-3.585780623307268516e-02,7.662725539647844548e-19,0.000000000000000000e+00,0.000000000000000000e+00,2.318919797396424198e-16,-2.318919797396424198e-16,-1.665439290106360913e-16,1.503789954149865480e+04,1.503789954149865662e+04,1.503789954149865662e+04,1.503789954149865662e+04
6.666666666666666297e-01,0.000000000000000000e+00,0.000000000000000000e+00,9.991484405809418490e-02,0.000000000000000000e+00,0.000000000000000000e+00,-4.087471471142605645e-02,0.000000000000000000e+00,0.000000000000000000e+00,0.000000000000000000e+00,0.000000000000000000e+00,0.000000000000000000e+00,0.000000000000000000e+00,1.504501423540378892e+04,1.504501423540378528e+04,1.504501423540378528e+04,1.504501423540378710e+04
6.875000000000000000e-01,5.159920332827598620e-39,-2.259897692214936897e-28,9.975498733406866492e-02,2.476759854487680457e-36,-2.032254998282001690e-25,-3.585654335885306992e-02,9.701029134106471305e-19,0.000000000000000000e+00,0.000000000000000000e+00,-1.475076691351604632e-35,-4.637839594792848396e-16,-4.163598225265902282e-17,1.503810494387248218e+04,1.503810494387247854e+04,1.503810494387247854e+04,1.503810494387247854e+04
7.083333333333332593e-01,0.000000000000000000e+00,0.000000000000000000e+00,9.991484405809418490e-02,0.000000000000000000e+00,0.000000000000000000e+00,-4.087471471142605645e-02,0.000000000000000000e+00,0.000000000000000000e+00,0.000000000000000000e+00,0.000000000000000000e+00,0.000000000000000000e+00,0.000000000000000000e+00,1.504522133550464423e+04,1.504522133550464059e+04,1.504522133550464059e+04,1.504522133550464241e+04
7.291666666666666297e-01,0.000000000000000000e+00,-1.790827104849535472e-28,9.975498996507160820e-02,0.000000000000000000e+00,-1.610406383092751284e-25,-3.585528048464312056e-02,7.687709883789687657e-19,0.000000000000000000e+00,0.000000000000000000e+00,1.159459898698212099e-16,-3.478379696094636297e-16,-4.163598225265902282e-17,1.503831034344041655e+04,1.503831034344041291e+04,1.503831034344041291e+04,1.503831034344041291e+04
7.500000000000000000e-01,0.000000000000000000e+00,0.000000000000000000e+00,9.991484405809418490e-02,0.000000000000000000e+00,0.000000000000000000e+00,-4.087471471142605645e-02,0.000000000000000000e+00,0.000000000000000000e+00,0.000000000000000000e+00,0.000000000000000000e+00,0.000000000000000000e+00,0.000000000000000000e+00,1.504542843275438645e+04,1.504542843275438099e+04,1.504542843275438099e+04,1.504542843275438099e+04
7.708333333333332593e-01,-5.159918348171799699e-39,-2.266382307193237637e-28,9.975499259607453761e-02,-2.476759854488413129e-36,-2.038015206061432425e-25,-3.585401761044280239e-02,9.729506811554084481e-19,0.000000000000000000e+00,0.000000000000000000e+00,2.318919797396424198e-16,-3.478379696094636297e-16,-2.081799112632950710e-16,1.503851574020257794e+04,1.503851574020257794e+04,1.503851574020257794e+04,1.503851574020257794e+04
7.916666666666666297e-01,0.000000000000000000e+00,0.000000000000000000e+00,9.991484405809418490e-02,0.000000000000000000e+00,0.000000000000000000e+00,-4.087471471142605645e-02,0.000000000000000000e+00,0.000000000000000000e+00,0.000000000000000000e+00,0.000000000000000000e+00,0.000000000000000000e+00,0.000000000000000000e+00,1.504563552715311744e+04,1.504563552715311744e+04,1.504563552715311744e+04,1.504563552715311744e+04
8.125000000000000000e-01,0.000000000000000000e+00,0.000000000000000000e+00,9.975499522707743927e-02,0.000000000000000000e+00,0.000000000000000000e+00,-3.585275473625216397e-02,0.000000000000000000e+00,0.000000000000000000e+00,0.000000000000000000e+00,0.000000000000000000e+00,0.000000000000000000e+00,0.000000000000000000e+00,1.503872113415908825e+04,1.503872113415908825e+04,1.503872113415908825e+04,1.503872113415908825e+04
8.333333333333332593e-01,0.000000000000000000e+00,0.000000000000000000e+00,9.991484405809418490e-02,0.000000000000000000e+00,0.000000000000000000e+00,-4.087471471142605645e-02,0.000000000000000000e+00,0.000000000000000000e+00,0.000000000000000000e+00,0.000000000000000000e+00,0.000000000000000000e+00,0.000000000000000000e+00,1.504584261870097362e+04,1.504584261870096998e+04,1.504584261870096998e+04,1.504584261870096998e+04
8.541666666666666297e-01,2.579960166413799310e-39,-2.989070324265807080e-28,9.975499785808032704e-02,1.238379927243840228e-36,-2.687789012388630684e-25,-3.585149186207115674e-02,1.283282777890388276e-18,0.000000000000000000e+00,0.000000000000000000e+00,4.637839594792848396e-16,-3.478379696094636297e-16,-2.081799112632950710e-16,1.503892652531005297e+04,1.503892652531005660e+04,1.503892652531005660e+04,1.503892652531005660e+04
8.750000000000000000e-01,0.000000000000000000e+00,0.000000000000000000e+00,9.991484405809418490e-02,0.000000000000000000e+00,0.000000000000000000e+00,-4.087471471142605645e-02,0.000000000000000000e+00,0.000000000000000000e+00,0.000000000000000000e+00,0.000000000000000000e+00,0.000000000000000000e+00,0.000000000000000000e+00,1.504604970739806049e+04,1.504604970739805685e+04,1.504604970739805685e+04,1.504604970739805685e+04
8.958333333333332593e-01,2.579960166413799310e-39,-1.784771921154823004e-28,9.975500048908318707e-02,1.238379927243840228e-36,-1.604849008912080904e-25,-3.585022898789982232e-02,7.662725539647844548e-19,0.000000000000000000e+00,0.000000000000000000e+00,2.318919797396424198e-16,-2.318919797396424198e-16,-1.665439290106360913e-16,1.503913191365559760e+04,1.503913191365559760e+04,1.503913191365559760e+04,1.503913191365559760e+04
9.166666666666666297e-01,0.000000000000000000e+00,0.000000000000000000e+00,9.991484405809418490e-02,0.000000000000000000e+00,0.000000000000000000e+00,-4.087471471142605645e-02,0.000000000000000000e+00,0.000000000000000000e+00,0.000000000000000000e+00,0.000000000000000000e+00,0.000000000000000000e+00,0.000000000000000000e+00,1.504625679324449447e+04,1.504625679324449811e+04,1.504625679324449811e+04,1.504625679324449811e+04
9.375000000000000000e-01,2.579958181758000063e-39,-2.988873533248381386e-28,9.975500312008603321e-02,1.238379927244573067e-36,-2.687518005540348302e-25,-3.584896611373812603e-02,1.283282777890388276e-18,0.000000000000000000e+00,0.000000000000000000e+00,-4.637839594792848396e-16,3.478379696094636297e-16,2.081799112632950710e-16,1.503933729919583129e+04,1.503933729919582765e+04,1.503933729919582765e+04,1.503933729919582765e+04
9.583333333333332593e-01,0.000000000000000000e+00,0.000000000000000000e+00,9.991484405809418490e-02,0.000000000000000000e+00,0.000000000000000000e+00,-4.087471471142605645e-02,0.000000000000000000e+00,0.000000000000000000e+00,0.000000000000000000e+00,0.000000000000000000e+00,0.000000000000000000e+00,0.000000000000000000e+00,1.504646387624040653e+04,1.504646387624040472e+04,1.504646387624040472e+04,1.504646387624040653e+04
9.791666666666666297e-01,2.579958181758000063e-39,-1.257971033538013049e-28,9.975500575108885160e-02,2.476760807123196652e-36,-1.131115284128216403e-25,-3.584770323958609561e-02,5.401317972145386322e-19,0.000000000000000000e+00,0.000000000000000000e+00,1.159459898698212099e-16,-2.318919797396424198e-16,2.693600265336783261e-35,1.503954268193086318e+04,1.503954268193086318e+04,1.503954268193086318e+04,1.503954268193086318e+04
1.000000000000000000e+00,0.000000000000000000e+00,0.000000000000000000e+00,9.991484405809418490e-02,0.000000000000000000e+00,0.000000000000000000e+00,-4.087471471142605645e-02,0.000000000000000000e+00,0.000000000000000000e+00,0.000000000000000000e+00,0.000000000000000000e+00,0.000000000000000000e+00,0.000000000000000000e+00,1.504667095638590217e+04,1.504667095638590217e+04,1.504667095638590217e+04,1.504667095638590217e+04
1.020833333333333259e+00,0.000000000000000000e+00,0.000000000000000000e+00,9.975500838209165611e-02,0.000000000000000000e+00,0.000000000000000000e+00,-3.584644036544370332e-02,0.000000000000000000e+00,0.000000000000000000e+00,0.000000000000000000e+00,0.000000000000000000e+00,0.000000000000000000e+00,0.000000000000000000e+00,1.503974806186081514e+04,1.503974806186081514e+04,1.503974806186081514e+04,1.503974806186081514e+04
1.041666666666666519e+00,0.000000000000000000e+00,0.000000000000000000e+00,9.991484405809418490e-02,0.000000000000000000e+00,0.000000000000000000e+00,-4.087471471142605645e-02,0.000000000000000000e+00,0.000000000000000000e+00,0.000000000000000000e+00,0.000000000000000000e+00,0.000000000000000000e+00,0.000000000000000000e+00,1.504687803368110326e+04,1.504687803368110326e+04,1.504687803368110326e+04,1.504687803368110326e+04
1.062500000000000000e+00,0.000000000000000000e+00,0.000000000000000000e+00,9.975501101309443286e-02,0.000000000000000000e+00,0.000000000000000000e+00,-3.584517749131096997e-02,0.000000000000000000e+00,0.000000000000000000e+00,0.000000000000000000e+00,0.000000000000000000e+00,0.000000000000000000e+00,0.000000000000000000e+00,1.503995343898580177e+04,1.503995343898580177e+04,1.503995343898580177e+04,1.503995343898580177e+04
1.083333333333333259e+00,0.000000000000000000e+00,0.000000000000000000e+00,9.991484405809418490e-02,0.000000000000000000e+00,0.000000000000000000e+00,-4.087471471142605645e-02,0.000000000000000000e+00,0.000000000000000000e+00,0.000000000000000000e+00,0.000000000000000000e+00,0.000000000000000000e+00,0.000000000000000000e+00,1.504708510812612440e+04,1.504708510812612622e+04,1.504708510812612622e+04,1.504708510812612622e+04
1.104166666666666519e+00,0.000000000000000000e+00,-1.321135011546277844e-28,9.975501364409719574e-02,0.000000000000000000e+00,-1.187847378438413293e-25,-3.584391461718789557e-02,5.673084009225078466e-19,0.000000000000000000e+00,0.000000000000000000e+00,-2.318919797396424198e-16,1.159459898698212099e-16,8.327196450531804565e-17,1.504015881330593584e+04,1.504015881330593584e+04,1.504015881330593584e+04,1.504015881330593584e+04
1.125000000000000000e+00,0.000000000000000000e+00,0.000000000000000000e+00,9.991484405809418490e-02,0.000000000000000000e+00,0.000000000000000000e+00,-4.087471471142605645e-02,0.000000000000000000e+00,0.000000000000000000e+00,0.000000000000000000e+00,0.000000000000000000e+00,0.000000000000000000e+00,0.000000000000000000e+00,1.504729217972109109e+04,1.504729217972109109e+04,1.504729217972109109e+04,1.504729217972109109e+04
1.145833333333333259e+00,0.000000000000000000e+00,0.000000000000000000e+00,9.975501627509993086e-02,0.000000000000000000e+00,0.000000000000000000e+00,-3.584265174307446622e-02,0.000000000000000000e+00,0.000000000000000000e+00,0.000000000000000000e+00,0.000000000000000000e+00,0.000000000000000000e+00,0.000000000000000000e+00,1.504036418482133558e+04,1.504036418482133558e+04,1.504036418482133558e+04,1.504036418482133558e+04
1.166666666666666519e+00,0.000000000000000000e+00,0.000000000000000000e+00,9.991484405809418490e-02,0.000000000000000000e+00,0.000000000000000000e+00,-4.087471471142605645e-02,0.000000000000000000e+00,0.000000000000000000e+00,0.000000000000000000e+00,0.000000000000000000e+00,0.000000000000000000e+00,0.000000000000000000e+00,1.504749924846611430e+04,1.504749924846611430e+04,1.504749924846611430e+04,1.504749924846611430e+04
1.187500000000000000e+00,0.000000000000000000e+00,0.000000000000000000e+00,9.975501890610265210e-02,0.000000000000000000e+00,0.000000000000000000e+00,-3.584138886897067500e-02,0.000000000000000000e+00,0.000000000000000000e+00,0.000000000000000000e+00,0.000000000000000000e+00,0.000000000000000000e+00,0.000000000000000000e+00,1.504056955353211561e+04,1.504056955353211197e+04,1.504056955353211197e+04,1.504056955353211197e+04
1.208333333333333259e+00,0.000000000000000000e+00,0.000000000000000000e+00,9.991484405809418490e-02,0.000000000000000000e+00,0.000000000000000000e+00,-4.087471471142605645e-02,0.000000000000000000e+00,0.000000000000000000e+00,0.000000000000000000e+00,0.000000000000000000e+00,0.000000000000000000e+00,0.000000000000000000e+00,1.504770631436131407e+04,1.504770631436131043e+04,1.504770631436131043e+04,1.504770631436131043e+04
1.229166666666666519e+00,-1.984655799355980614e-45,-2.926102857990323921e-28,9.975502153710534559e-02,7.328621534892619554e-49,-2.630753917961999970e-25,-3.584012599487656353e-02,1.256621520343822201e-18,0.000000000000000000e+00,0.000000000000000000e+00,4.637839594792848396e-16,-3.478379696094636297e-16,-1.665439290106360913e-16,1.504077491943837958e+04,1.504077491943838140e+04,1.504077491943838140e+04,1.504077491943838140e+04
1.250000000000000000e+00,0.000000000000000000e+00,0.000000000000000000e+00,9.991484405809418490e-02,0.000000000000000000e+00,0.000000000000000000e+00,-4.087471471142605645e-02,0.000000000000000000e+00,0.000000000000000000e+00,0.000000000000000000e+00,0.000000000000000000e+00,0.000000000000000000e+00,0.000000000000000000e+00,1.504791337740680319e+04,1.504791337740680319e+04,1.504791337740680319e+04,1.504791337740680319e+04
1.270833333333333259e+00,0.000000000000000000e+00,0.000000000000000000e+00,9.975502416810802520e-02,0.000000000000000000e+00,0.000000000000000000e+00,-3.583886312079208325e-02,0.000000000000000000e+00,0.000000000000000000e+00,0.000000000000000000e+00,0.000000000000000000e+00,0.000000000000000000e+00,0.000000000000000000e+00,1.504098028254026030e+04,1.504098028254026030e+04,1.504098028254026030e+04,1.504098028254026030e+04
1.291666666666666519e+00,0.000000000000000000e+00,0.000000000000000000e+00,9.991484405809418490e-02,0.000000000000000000e+00,0.000000000000000000e+00,-4.087471471142605645e-02,0.000000000000000000e+00,0.000000000000000000e+00,0.000000000000000000e+00,0.000000000000000000e+00,0.000000000000000000e+00,0.000000000000000000e+00,1.504812043760270717e+04,1.504812043760270353e+04,1.504812043760270353e+04,1.504812043760270535e+04
1.312500000000000000e+00,1.031983669634359940e-38,-2.258782001028167077e-28,9.975502679911067705e-02,4.953519708976826257e-36,-2.030718592765486098e-25,-3.583760024671726191e-02,9.701029134106471305e-19,0.000000000000000000e+00,0.000000000000000000e+00,-1.475076913779932409e-35,-4.637839594792848396e-16,-4.163598225265902282e-17,1.504118564283786327e+04,1.504118564283786327e+04,1.504118564283786327e+04,1.504118564283786327e+04
1.333333333333333259e+00,0.000000000000000000e+00,0.000000000000000000e+00,9.991484405809418490e-02,0.000000000000000000e+00,0.000000000000000000e+00,-4.087471471142605645e-02,0.000000000000000000e+00,0.000000000000000000e+00,0.000000000000000000e+00,0.000000000000000000e+00,0.000000000000000000e+00,0.000000000000000000e+00,1.504832749494913696e+04,1.504832749494913696e+04,1.504832749494913696e+04,1.504832749494913696e+04
1.354166666666666519e+00,0.000000000000000000e+00,0.000000000000000000e+00,9.975502943011331503e-02,0.000000000000000000e+00,0.000000000000000000e+00,-3.583633737265207869e-02,0.000000000000000000e+00,0.000000000000000000e+00,0.000000000000000000e+00,0.000000000000000000e+00,0.000000000000000000e+00,0.000000000000000000e+00,1.504139100033130126e+04,1.504139100033130126e+04,1.504139100033130126e+04,1.504139100033130126e+04
1.375000000000000000e+00,0.000000000000000000e+00,0.000000000000000000e+00,9.991484405809418490e-02,0.000000000000000000e+00,0.000000000000000000e+00,-4.087471471142605645e-02,0.000000000000000000e+00,0.000000000000000000e+00,0.000000000000000000e+00,0.000000000000000000e+00,0.000000000000000000e+00,0.000000000000000000e+00,1.504853454944621262e+04,1.504853454944621262e+04,1.504853454944621262e+04,1.504853454944621262e+04
1.395833333333333259e+00,0.000000000000000000e+00,0.000000000000000000e+00,9.975503206111592525e-02,0.000000000000000000e+00,0.000000000000000000e+00,-3.583507449859655442e-02,0.000000000000000000e+00,0.000000000000000000e+00,0.000000000000000000e+00,0.000000000000000000e+00,0.000000000000000000e+00,0.000000000000000000e+00,1.504159635502069068e+04,1.504159635502069432e+04,1.504159635502069432e+04,1.504159635502069432e+04
1.416666666666666519e+00,0.000000000000000000e+00,0.000000000000000000e+00,9.991484405809418490e-02,0.000000000000000000e+00,0.000000000000000000e+00,-4.087471471142605645e-02,0.000000000000000000e+00,0.000000000000000000e+00,0.000000000000000000e+00,0.000000000000000000e+00,0.000000000000000000e+00,0.000000000000000000e+00,1.504874160109405057e+04,1.504874160109405420e+04,1.504874160109405420e+04,1.504874160109405420e+04
1.437500000000000000e+00,-1.984655799355980614e-45,-1.702116970203375593e-28,9.975503469211852159e-02,7.328621534892619554e-49,-1.530178295257557005e-25,-3.583381162455068214e-02,7.310983627518147377e-19,0.000000000000000000e+00,0.000000000000000000e+00,-2.318919797396424198e-16,2.318919797396424198e-16,1.249079467579770623e-16,1.504180170690614978e+04,1.504180170690615341e+04,1.504180170690615341e+04,1.504180170690615341e+04
1.458333333333333259e+00,0.000000000000000000e+00,0.000000000000000000e+00,9.991484405809418490e-02,0.000000000000000000e+00,0.000000000000000000e+00,-4.087471471142605645e-02,0.000000000000000000e+00,0.000000000000000000e+00,0.000000000000000000e+00,0.000000000000000000e+00,0.000000000000000000e+00,0.000000000000000000e+00,1.504894864989277630e+04,1.504894864989277630e+04,1.504894864989277630e+04,1.504894864989277630e+04
1.479166666666666519e+00,0.000000000000000000e+00,0.000000000000000000e+00,9.975503732312110405e-02,0.000000000000000000e+00,0.000000000000000000e+00,-3.583254875051445493e-02,0.000000000000000000e+00,0.000000000000000000e+00,0.000000000000000000e+00,0.000000000000000000e+00,0.000000000000000000e+00,0.000000000000000000e+00,1.504200705598779678e+04,1.504200705598779314e+04,1.504200705598779314e+04,1.504200705598779314e+04
1.500000000000000000e+00,0.000000000000000000e+00,0.000000000000000000e+00,9.991484405809418490e-02,0.000000000000000000e+00,0.000000000000000000e+00,-4.087471471142605645e-02,0.000000000000000000e+00,0.000000000000000000e+00,0.000000000000000000e+00,0.000000000000000000e+00,0.000000000000000000e+00,0.000000000000000000e+00,1.504915569584249897e+04,1.504915569584249897e+04,1.504915569584249897e+04,1.504915569584249897e+04
1.520833333333333259e+00,0.000000000000000000e+00,0.000000000000000000e+00,9.975503995412364489e-02,0.000000000000000000e+00,0.000000000000000000e+00,-3.583128587648786584e-02,0.000000000000000000e+00,0.000000000000000000e+00,0.000000000000000000e+00,0.000000000000000000e+00,0.000000000000000000e+00,0.000000000000000000e+00,1.504221240226572991e+04,1.504221240226573354e+04,1.504221240226573354e+04,1.504221240226573354e+04
1.541666666666666519e+00,0.000000000000000000e+00,0.000000000000000000e+00,9.991484405809418490e-02,0.000000000000000000e+00,0.000000000000000000e+00,-4.087471471142605645e-02,0.000000000000000000e+00,0.000000000000000000e+00,0.000000000000000000e+00,0.000000000000000000e+00,0.000000000000000000e+00,0.000000000000000000e+00,1.504936273894333499e+04,1.504936273894333499e+04,1.504936273894333499e+04,1.504936273894333499e+04
1.562500000000000000e+00,0.000000000000000000e+00,0.000000000000000000e+00,9.975504258512618572e-02,0.000000000000000000e+00,0.000000000000000000e+00,-3.583002300247094263e-02,0.000000000000000000e+00,0.000000000000000000e+00,0.000000000000000000e+00,0.000000000000000000e+00,0.000000000000000000e+00,0.000000000000000000e+00,1.504241774574008195e+04,1.504241774574008377e+04,1.504241774574008377e+04,1.504241774574008377e+04
1.583333333333333259e+00,0.000000000000000000e+00,0.000000000000000000e+00,9.991484405809418490e-02,0.000000000000000000e+00,0.000000000000000000e+00,-4.087471471142605645e-02,0.000000000000000000e+00,0.000000000000000000e+00,0.000000000000000000e+00,0.000000000000000000e+00,0.000000000000000000e+00,0.000000000000000000e+00,1.504956977919540805e+04,1.504956977919540805e+04,1.504956977919540805e+04,1.504956977919540805e+04
1.604166666666666519e+00,0.000000000000000000e+00,0.000000000000000000e+00,9.975504521612869879e-02,0.000000000000000000e+00,0.000000000000000000e+00,-3.582876012846365754e-02,0.000000000000000000e+00,0.000000000000000000e+00,0.000000000000000000e+00,0.000000000000000000e+00,0.000000000000000000e+00,0.000000000000000000e+00,1.504262308641096206e+04,1.504262308641096206e+04,1.504262308641096206e+04,1.504262308641096206e+04
1.625000000000000000e+00,0.000000000000000000e+00,0.000000000000000000e+00,9.991484405809418490e-02,0.000000000000000000e+00,0.000000000000000000e+00,-4.087471471142605645e-02,0.000000000000000000e+00,0.000000000000000000e+00,0.000000000000000000e+00,0.000000000000000000e+00,0.000000000000000000e+00,0.000000000000000000e+00,1.504977681659882728e+04,1.504977681659883092e+04,1.504977681659883092e+04,1.504977681659883092e+04
1.645833333333333259e+00,0.000000000000000000e+00,-2.925139551936851077e-28,9.975504784713118411e-02,0.000000000000000000e+00,-2.629427530491168216e-25,-3.582749725446603140e-02,1.256621520343822201e-18,0.000000000000000000e+00,0.000000000000000000e+00,-4.637839594792848396e-16,3.478379696094636297e-16,1.665439290106360913e-16,1.504282842427848118e+04,1.504282842427848118e+04,1.504282842427848118e+04,1.504282842427848118e+04
1.666666666666666519e+00,0.000000000000000000e+00,0.000000000000000000e+00,9.991484405809418490e-02,0.000000000000000000e+00,0.000000000000000000e+00,-4.087471471142605645e-02,0.000000000000000000e+00,0.000000000000000000e+00,0.000000000000000000e+00,0.000000000000000000e+00,0.000000000000000000e+00,0.000000000000000000e+00,1.504998385115372184e+04,1.504998385115372548e+04,1.504998385115372548e+04,1.504998385115372548e+04
1.687500000000000000e+00,0.000000000000000000e+00,-1.701780717788323827e-28,9.975505047813365556e-02,0.000000000000000000e+00,-1.529715322347159576e-25,-3.582623438047803643e-02,7.310983627518147377e-19,0.000000000000000000e+00,0.000000000000000000e+00,-2.318919797396424198e-16,2.318919797396424198e-16,1.249079467579770623e-16,1.504303375934275573e+04,1.504303375934275573e+04,1.504303375934275573e+04,1.504303375934275573e+04
1.708333333333333259e+00,0.000000000000000000e+00,0.000000000000000000e+00,9.991484405809418490e-02,0.000000000000000000e+00,0.000000000000000000e+00,-4.087471471142605645e-02,0.000000000000000000e+00,0.000000000000000000e+00,0.000000000000000000e+00,0.000000000000000000e+00,0.000000000000000000e+00,0.000000000000000000e+00,1.505019088286020451e+04,1.505019088286020451e+04,1.505019088286020451e+04,1.505019088286020451e+04
1.729166666666666519e+00,0.000000000000000000e+00,0.000000000000000000e+00,9.975505310913611312e-02,0.000000000000000000e+00,0.000000000000000000e+00,-3.582497150649970041e-02,0.000000000000000000e+00,0.000000000000000000e+00,0.000000000000000000e+00,0.000000000000000000e+00,0.000000000000000000e+00,0.000000000000000000e+00,1.504323909160390394e+04,1.504323909160390394e+04,1.504323909160390394e+04,1.504323909160390394e+04
1.750000000000000000e+00,0.000000000000000000e+00,0.000000000000000000e+00,9.991484405809418490e-02,0.000000000000000000e+00,0.000000000000000000e+00,-4.087471471142605645e-02,0.000000000000000000e+00,0.000000000000000000e+00,0.000000000000000000e+00,0.000000000000000000e+00,0.000000000000000000e+00,0.000000000000000000e+00,1.505039791171839352e+04,1.505039791171838988e+04,1.505039791171838988e+04,1.505039791171838988e+04
1.770833333333333259e+00,0.000000000000000000e+00,-1.783538304466039543e-28,9.975505574013854293e-02,0.000000000000000000e+00,-1.603150375576259659e-25,-3.582370863253099558e-02,7.662725539647844548e-19,0.000000000000000000e+00,0.000000000000000000e+00,2.318919797396424198e-16,-2.318919797396424198e-16,-1.665439290106360913e-16,1.504344442106203678e+04,1.504344442106203678e+04,1.504344442106203678e+04,1.504344442106203678e+04
1.791666666666666519e+00,0.000000000000000000e+00,0.000000000000000000e+00,9.991484405809418490e-02,0.000000000000000000e+00,0.000000000000000000e+00,-4.087471471142605645e-02,0.000000000000000000e+00,0.000000000000000000e+00,0.000000000000000000e+00,0.000000000000000000e+00,0.000000000000000000e+00,0.000000000000000000e+00,1.505060493772839254e+04,1.505060493772839618e+04,1.505060493772839618e+04,1.505060493772839618e+04
1.812500000000000000e+00,0.000000000000000000e+00,-1.883515748376017473e-28,9.975505837114094498e-02,1.238380879878623752e-36,-1.692986448176159648e-25,-3.582244575857196356e-02,8.092531554455412753e-19,0.000000000000000000e+00,0.000000000000000000e+00,-2.318919797396424198e-16,2.318919797396424198e-16,2.081799112632950710e-16,1.504364974771726702e+04,1.504364974771727066e+04,1.504364974771727066e+04,1.504364974771727066e+04
1.833333333333333259e+00,0.000000000000000000e+00,0.000000000000000000e+00,9.991484405809418490e-02,0.000000000000000000e+00,0.000000000000000000e+00,-4.087471471142605645e-02,0.000000000000000000e+00,0.000000000000000000e+00,0.000000000000000000e+00,0.000000000000000000e+00,0.000000000000000000e+00,0.000000000000000000e+00,1.505081196089033801e+04,1.505081196089034165e+04,1.505081196089034165e+04,1.505081196089034165e+04
1.854166666666666519e+00,2.579960166413799310e-39,-1.701556567948123224e-28,9.975506100214333316e-02,1.238379927243840228e-36,-1.529406718028428932e-25,-3.582118288462256273e-02,7.310983627518147377e-19,0.000000000000000000e+00,0.000000000000000000e+00,-2.318919797396424198e-16,2.318919797396424198e-16,1.249079467579770623e-16,1.504385507156971653e+04,1.504385507156972017e+04,1.504385507156972017e+04,1.504385507156972017e+04
1.875000000000000000e+00,0.000000000000000000e+00,0.000000000000000000e+00,9.991484405809418490e-02,0.000000000000000000e+00,0.000000000000000000e+00,-4.087471471142605645e-02,0.000000000000000000e+00,0.000000000000000000e+00,0.000000000000000000e+00,0.000000000000000000e+00,0.000000000000000000e+00,0.000000000000000000e+00,1.505101898120434817e+04,1.505101898120434453e+04,1.505101898120434453e+04,1.505101898120434453e+04
1.895833333333333259e+00,-2.579958181758000063e-39,-2.264368433327372871e-28,9.975506363314570746e-02,-2.476760807123196652e-36,-2.035242194580679990e-25,-3.581992001068280002e-02,9.729506811554084481e-19,0.000000000000000000e+00,0.000000000000000000e+00,2.318919797396424198e-16,-3.478379696094636297e-16,-2.081799112632950710e-16,1.504406039261949991e+04,1.504406039261949991e+04,1.504406039261949991e+04,1.504406039261949991e+04
1.916666666666666519e+00,0.000000000000000000e+00,0.000000000000000000e+00,9.991484405809418490e-02,0.000000000000000000e+00,0.000000000000000000e+00,-4.087471471142605645e-02,0.000000000000000000e+00,0.000000000000000000e+00,0.000000000000000000e+00,0.000000000000000000e+00,0.000000000000000000e+00,0.000000000000000000e+00,1.505122599867052668e+04,1.505122599867052304e+04,1.505122599867052304e+04,1.505122599867052304e+04
1.937500000000000000e+00,2.579960166413799310e-39,-1.883329672366733110e-28,9.975506626414805400e-02,1.238379927243840228e-36,-1.692730270865565578e-25,-3.581865713675268931e-02,8.092531554455412753e-19,0.000000000000000000e+00,0.000000000000000000e+00,2.318919797396424198e-16,-2.318919797396424198e-16,-2.081799112632950710e-16,1.504426571086672084e+04,1.504426571086672448e+04,1.504426571086672448e+04,1.504426571086672448e+04
1.958333333333333259e+00,0.000000000000000000e+00,0.000000000000000000e+00,9.991484405809418490e-02,0.000000000000000000e+00,0.000000000000000000e+00,-4.087471471142605645e-02,0.000000000000000000e+00,0.000000000000000000e+00,0.000000000000000000e+00,0.000000000000000000e+00,0.000000000000000000e+00,0.000000000000000000e+00,1.505143301328899543e+04,1.505143301328899179e+04,1.505143301328899179e+04,1.505143301328899179e+04
1.979166666666666519e+00,0.000000000000000000e+00,-2.924369021344078680e-28,9.975506889515037279e-02,0.000000000000000000e+00,-2.628366694659218735e-25,-3.581739426283223060e-02,1.256621520343822201e-18,0.000000000000000000e+00,0.000000000000000000e+00,4.637839594792848396e-16,-3.478379696094636297e-16,-1.665439290106360913e-16,1.504447102631150483e+04,1.504447102631150847e+04,1.504447102631150847e+04,1.504447102631150847e+04
2.000000000000000000e+00,0.000000000000000000e+00,0.000000000000000000e+00,9.991484405809418490e-02,0.000000000000000000e+00,0.000000000000000000e+00,-4.087471471142605645e-02,0.000000000000000000e+00,0.000000000000000000e+00,0.000000000000000000e+00,0.000000000000000000e+00,0.000000000000000000e+00,0.000000000000000000e+00,1.505164002505986900e+04,1.505164002505987082e+04,1.505164002505987082e+04,1.505164002505987082e+04
2.020833333333333037e+00,2.579959174085899849e-39,-6.920696690186149545e-29,9.975507152615267770e-02,1.238379927244206564e-36,-6.220080763394924306e-26,-3.581613138892141696e-02,2.973969318393968460e-19,0.000000000000000000e+00,0.000000000000000000e+00,-7.375384568899662043e-36,1.159459898698212099e-16,8.327196450531804565e-17,1.504467633895396648e+04,1.504467633895396648e+04,1.504467633895396648e+04,1.504467633895396648e+04
2.041666666666666519e+00,0.000000000000000000e+00,0.000000000000000000e+00,9.991484405809418490e-02,0.000000000000000000e+00,0.000000000000000000e+00,-4.087471471142605645e-02,0.000000000000000000e+00,0.000000000000000000e+00,0.000000000000000000e+00,0.000000000000000000e+00,0.000000000000000000e+00,0.000000000000000000e+00,1.505184703398327656e+04,1.505184703398327656e+04,1.505184703398327656e+04,1.505184703398327656e+04
2.062500000000000000e+00,0.000000000000000000e+00,0.000000000000000000e+00,9.975507415715496873e-02,0.000000000000000000e+00,0.000000000000000000e+00,-3.581486851502024144e-02,0.000000000000000000e+00,0.000000000000000000e+00,0.000000000000000000e+00,0.000000000000000000e+00,0.000000000000000000e+00,0.000000000000000000e+00,1.504488164879421493e+04,1.504488164879421493e+04,1.504488164879421493e+04,1.504488164879421493e+04
2.083333333333333037e+00,0.000000000000000000e+00,0.000000000000000000e+00,9.991484405809418490e-02,0.000000000000000000e+00,0.000000000000000000e+00,-4.087471471142605645e-02,0.000000000000000000e+00,0.000000000000000000e+00,0.000000000000000000e+00,0.000000000000000000e+00,0.000000000000000000e+00,0.000000000000000000e+00,1.505205404005932542e+04,1.505205404005932905e+04,1.505205404005932905e+04,1.505205404005932905e+04
2.104166666666666519e+00,1.984655799355980614e-45,-2.924080098480759541e-28,9.975507678815723200e-02,-7.328621534892619554e-49,-2.627968944032091094e-25,-3.581360564112870404e-02,1.256621520343822201e-18,0.000000000000000000e+00,0.000000000000000000e+00,-4.637839594792848396e-16,3.478379696094636297e-16,1.665439290106360913e-16,1.504508695583236658e+04,1.504508695583236658e+04,1.504508695583236658e+04,1.504508695583236658e+04
2.125000000000000000e+00,0.000000000000000000e+00,0.000000000000000000e+00,9.991484405809418490e-02,0.000000000000000000e+00,0.000000000000000000e+00,-4.087471471142605645e-02,0.000000000000000000e+00,0.000000000000000000e+00,0.000000000000000000e+00,0.000000000000000000e+00,0.000000000000000000e+00,0.000000000000000000e+00,1.505226104328814290e+04,1.505226104328814108e+04,1.505226104328814108e+04,1.505226104328814108e+04
2.145833333333333037e+00,0.000000000000000000e+00,-1.320047868107099075e-28,9.975507941915948140e-02,0.000000000000000000e+00,-1.186350560286138394e-25,-3.581234276724681170e-02,5.673084009225078466e-19,0.000000000000000000e+00,0.000000000000000000e+00,2.318919797396424198e-16,-1.159459898698212099e-16,-8.327196450531804565e-17,1.504529226006853787e+04,1.504529226006853787e+04,1.504529226006853787e+04,1.504529226006853787e+04
2.166666666666666519e+00,0.000000000000000000e+00,0.000000000000000000e+00,9.991484405809418490e-02,0.000000000000000000e+00,0.000000000000000000e+00,-4.087471471142605645e-02,0.000000000000000000e+00,0.000000000000000000e+00,0.000000000000000000e+00,0.000000000000000000e+00,0.000000000000000000e+00,0.000000000000000000e+00,1.505246804366983270e+04,1.505246804366983270e+04,1.505246804366983270e+04,1.505246804366983270e+04
2.187500000000000000e+00,0.000000000000000000e+00,0.000000000000000000e+00,9.975508205016170304e-02,0.000000000000000000e+00,0.000000000000000000e+00,-3.581107989337457831e-02,0.000000000000000000e+00,0.000000000000000000e+00,0.000000000000000000e+00,0.000000000000000000e+00,0.000000000000000000e+00,0.000000000000000000e+00,1.504549756150284338e+04,1.504549756150284338e+04,1.504549756150284338e+04,1.504549756150284338e+04
2.208333333333333037e+00,0.000000000000000000e+00,0.000000000000000000e+00,9.991484405809418490e-02,0.000000000000000000e+00,0.000000000000000000e+00,-4.087471471142605645e-02,0.000000000000000000e+00,0.000000000000000000e+00,0.000000000000000000e+00,0.000000000000000000e+00,0.000000000000000000e+00,0.000000000000000000e+00,1.505267504120452577e+04,1.505267504120452213e+04,1.505267504120452213e+04,1.505267504120452213e+04
2.229166666666666519e+00,2.579958181758000063e-39,-2.181300661915411809e-28,9.975508468116391081e-02,1.238379927244573067e-36,-1.960305159983927647e-25,-3.580981701951198304e-02,9.375051921573135373e-19,0.000000000000000000e+00,0.000000000000000000e+00,2.318919797396424198e-16,-3.478379696094636297e-16,-1.665439290106360913e-16,1.504570286013539226e+04,1.504570286013539589e+04,1.504570286013539589e+04,1.504570286013539589e+04
2.250000000000000000e+00,0.000000000000000000e+00,0.000000000000000000e+00,9.991484405809418490e-02,0.000000000000000000e+00,0.000000000000000000e+00,-4.087471471142605645e-02,0.000000000000000000e+00,0.000000000000000000e+00,0.000000000000000000e+00,0.000000000000000000e+00,0.000000000000000000e+00,0.000000000000000000e+00,1.505288203589232580e+04,1.505288203589232580e+04,1.505288203589232580e+04,1.505288203589232580e+04
2.270833333333333037e+00,0.000000000000000000e+00,0.000000000000000000e+00,9.975508731216609082e-02,0.000000000000000000e+00,0.000000000000000000e+00,-3.580855414565901895e-02,0.000000000000000000e+00,0.000000000000000000e+00,0.000000000000000000e+00,0.000000000000000000e+00,0.000000000000000000e+00,0.000000000000000000e+00,1.504590815596630819e+04,1.504590815596631001e+04,1.504590815596631001e+04,1.504590815596631001e+04
2.291666666666666519e+00,0.000000000000000000e+00,0.000000000000000000e+00,9.991484405809418490e-02,0.000000000000000000e+00,0.000000000000000000e+00,-4.087471471142605645e-02,0.000000000000000000e+00,0.000000000000000000e+00,0.000000000000000000e+00,0.000000000000000000e+00,0.000000000000000000e+00,0.000000000000000000e+00,1.505308902773336195e+04,1.505308902773336195e+04,1.505308902773336195e+04,1.505308902773336195e+04
2.312500000000000000e+00,0.000000000000000000e+00,0.000000000000000000e+00,9.975508994316825695e-02,0.000000000000000000e+00,0.000000000000000000e+00,-3.580729127181569299e-02,0.000000000000000000e+00,0.000000000000000000e+00,0.000000000000000000e+00,0.000000000000000000e+00,0.000000000000000000e+00,0.000000000000000000e+00,1.504611344899570577e+04,1.504611344899570213e+04,1.504611344899570213e+04,1.504611344899570213e+04
2.333333333333333037e+00,0.000000000000000000e+00,0.000000000000000000e+00,9.991484405809418490e-02,0.000000000000000000e+00,0.000000000000000000e+00,-4.087471471142605645e-02,0.000000000000000000e+00,0.000000000000000000e+00,0.000000000000000000e+00,0.000000000000000000e+00,0.000000000000000000e+00,0.000000000000000000e+00,1.505329601672774879e+04,1.505329601672774515e+04,1.505329601672774515e+04,1.505329601672774515e+04
2.354166666666666519e+00,2.579960166413799310e-39,-2.923502295697183995e-28,9.975509257417039533e-02,1.238379927243840228e-36,-2.627173545523239222e-25,-3.580602839798203291e-02,1.256621520343822201e-18,0.000000000000000000e+00,0.000000000000000000e+00,4.637839594792848396e-16,-3.478379696094636297e-16,-1.665439290106360913e-16,1.504631873922368504e+04,1.504631873922368868e+04,1.504631873922368868e+04,1.504631873922368868e+04
2.375000000000000000e+00,0.000000000000000000e+00,0.000000000000000000e+00,9.991484405809418490e-02,0.000000000000000000e+00,0.000000000000000000e+00,-4.087471471142605645e-02,0.000000000000000000e+00,0.000000000000000000e+00,0.000000000000000000e+00,0.000000000000000000e+00,0.000000000000000000e+00,0.000000000000000000e+00,1.505350300287559912e+04,1.505350300287559912e+04,1.505350300287559912e+04,1.505350300287559912e+04
2.395833333333333037e+00,0.000000000000000000e+00,0.000000000000000000e+00,9.975509520517251982e-02,0.000000000000000000e+00,0.000000000000000000e+00,-3.580476552415799707e-02,0.000000000000000000e+00,0.000000000000000000e+00,0.000000000000000000e+00,0.000000000000000000e+00,0.000000000000000000e+00,0.000000000000000000e+00,1.504652402665037880e+04,1.504652402665037880e+04,1.504652402665037880e+04,1.504652402665037880e+04
2.416666666666666519e+00,0.000000000000000000e+00,0.000000000000000000e+00,9.991484405809418490e-02,0.000000000000000000e+00,0.000000000000000000e+00,-4.087471471142605645e-02,0.000000000000000000e+00,0.000000000000000000e+00,0.000000000000000000e+00,0.000000000000000000e+00,0.000000000000000000e+00,0.000000000000000000e+00,1.505370998617702935e+04,1.505370998617703299e+04,1.505370998617703299e+04,1.505370998617703299e+04
2.437500000000000000e+00,0.000000000000000000e+00,-2.985332404166603291e-28,9.975509783617461657e-02,0.000000000000000000e+00,-2.682642541166890114e-25,-3.580350265034361323e-02,1.283282777890388276e-18,0.000000000000000000e+00,0.000000000000000000e+00,-4.637839594792848396e-16,3.478379696094636297e-16,2.081799112632950710e-16,1.504672931127589436e+04,1.504672931127589072e+04,1.504672931127589072e+04,1.504672931127589072e+04
2.458333333333333037e+00,0.000000000000000000e+00,0.000000000000000000e+00,9.991484405809418490e-02,0.000000000000000000e+00,0.000000000000000000e+00,-4.087471471142605645e-02,0.000000000000000000e+00,0.000000000000000000e+00,0.000000000000000000e+00,0.000000000000000000e+00,0.000000000000000000e+00,0.000000000000000000e+00,1.505391696663216862e+04,1.505391696663216862e+04,1.505391696663216862e+04,1.505391696663216862e+04
2.479166666666666519e+00,0.000000000000000000e+00,0.000000000000000000e+00,9.975510046717669943e-02,0.000000000000000000e+00,0.000000000000000000e+00,-3.580223977653886058e-02,0.000000000000000000e+00,0.000000000000000000e+00,0.000000000000000000e+00,0.000000000000000000e+00,0.000000000000000000e+00,0.000000000000000000e+00,1.504693459310033722e+04,1.504693459310034086e+04,1.504693459310034086e+04,1.504693459310034086e+04
2.500000000000000000e+00,0.000000000000000000e+00,0.000000000000000000e+00,9.991484405809418490e-02,0.000000000000000000e+00,0.000000000000000000e+00,-4.087471471142605645e-02,0.000000000000000000e+00,0.000000000000000000e+00,0.000000000000000000e+00,0.000000000000000000e+00,0.000000000000000000e+00,0.000000000000000000e+00,1.505412394424112244e+04,1.505412394424112426e+04,1.505412394424112426e+04,1.505412394424112426e+04
2.520833333333333037e+00,2.579958181758000063e-39,-1.639718651693863559e-28,9.975510309817875454e-02,1.238379927244573067e-36,-1.473412079717540840e-25,-3.580097690274375993e-02,7.049001608558317754e-19,0.000000000000000000e+00,0.000000000000000000e+00,-2.318919797396424198e-16,2.318919797396424198e-16,8.327196450531804565e-17,1.504713987212384018e+04,1.504713987212384018e+04,1.504713987212384018e+04,1.504713987212384018e+04
2.541666666666666519e+00,0.000000000000000000e+00,0.000000000000000000e+00,9.991484405809418490e-02,0.000000000000000000e+00,0.000000000000000000e+00,-4.087471471142605645e-02,0.000000000000000000e+00,0.000000000000000000e+00,0.000000000000000000e+00,0.000000000000000000e+00,0.000000000000000000e+00,0.000000000000000000e+00,1.505433091900401996e+04,1.505433091900401632e+04,1.505433091900401632e+04,1.505433091900401814e+04
2.562500000000000000e+00,0.000000000000000000e+00,-2.351566291613507476e-28,9.975510572918079577e-02,0.000000000000000000e+00,-2.113024356462699428e-25,-3.579971402895829047e-02,1.010950286525777232e-18,0.000000000000000000e+00,0.000000000000000000e+00,1.159459898698212099e-16,-4.637839594792848396e-16,-8.327196450531804565e-17,1.504734514834650327e+04,1.504734514834650327e+04,1.504734514834650327e+04,1.504734514834650327e+04
2.583333333333333037e+00,0.000000000000000000e+00,0.000000000000000000e+00,9.991484405809418490e-02,0.000000000000000000e+00,0.000000000000000000e+00,-4.087471471142605645e-02,0.000000000000000000e+00,0.000000000000000000e+00,0.000000000000000000e+00,0.000000000000000000e+00,0.000000000000000000e+00,0.000000000000000000e+00,1.505453789092096849e+04,1.505453789092096122e+04,1.505453789092096122e+04,1.505453789092096304e+04
2.604166666666666519e+00,-5.159920332827598620e-39,-3.958709000493631280e-28,9.975510836018280925e-02,-4.953521614244927961e-36,-3.557076901883296352e-25,-3.579845115518246607e-02,1.701925202767523732e-18,0.000000000000000000e+00,0.000000000000000000e+00,3.478379696094636297e-16,-6.956759392189272594e-16,-2.498158935159541246e-16,1.504755042176845382e+04,1.504755042176845018e+04,1.504755042176845018e+04,1.504755042176845018e+04
2.625000000000000000e+00,0.000000000000000000e+00,0.000000000000000000e+00,9.991484405809418490e-02,0.000000000000000000e+00,0.000000000000000000e+00,-4.087471471142605645e-02,0.000000000000000000e+00,0.000000000000000000e+00,0.000000000000000000e+00,0.000000000000000000e+00,0.000000000000000000e+00,0.000000000000000000e+00,1.505474485999207900e+04,1.505474485999208082e+04,1.505474485999208082e+04,1.505474485999208082e+04
2.645833333333333037e+00,0.000000000000000000e+00,-6.917278205067332840e-29,9.975511099118480884e-02,0.000000000000000000e+00,-6.215375049041985425e-26,-3.579718828141627285e-02,2.973969318393968460e-19,0.000000000000000000e+00,0.000000000000000000e+00,-7.375384568899662043e-36,1.159459898698212099e-16,8.327196450531804565e-17,1.504775569238979188e+04,1.504775569238979006e+04,1.504775569238979006e+04,1.504775569238979006e+04
2.666666666666666519e+00,0.000000000000000000e+00,0.000000000000000000e+00,9.991484405809418490e-02,0.000000000000000000e+00,0.000000000000000000e+00,-4.087471471142605645e-02,0.000000000000000000e+00,0.000000000000000000e+00,0.000000000000000000e+00,0.000000000000000000e+00,0.000000000000000000e+00,0.000000000000000000e+00,1.505495182621748427e+04,1.505495182621748427e+04,1.505495182621748427e+04,1.505495182621748427e+04
2.687500000000000000e+00,0.000000000000000000e+00,0.000000000000000000e+00,9.975511362218678069e-02,0.000000000000000000e+00,0.000000000000000000e+00,-3.579592540765973857e-02,0.000000000000000000e+00,0.000000000000000000e+00,0.000000000000000000e+00,0.000000000000000000e+00,0.000000000000000000e+00,0.000000000000000000e+00,1.504796096021064113e+04,1.504796096021063931e+04,1.504796096021063931e+04,1.504796096021063931e+04
2.708333333333333037e+00,0.000000000000000000e+00,0.000000000000000000e+00,9.991484405809418490e-02,0.000000000000000000e+00,0.000000000000000000e+00,-4.087471471142605645e-02,0.000000000000000000e+00,0.000000000000000000e+00,0.000000000000000000e+00,0.000000000000000000e+00,0.000000000000000000e+00,0.000000000000000000e+00,1.505515878959729525e+04,1.505515878959729525e+04,1.505515878959729525e+04,1.505515878959729525e+04
2.729166666666666519e+00,0.000000000000000000e+00,0.000000000000000000e+00,9.975511625318873865e-02,0.000000000000000000e+00,0.000000000000000000e+00,-3.579466253391284242e-02,0.000000000000000000e+00,0.000000000000000000e+00,0.000000000000000000e+00,0.000000000000000000e+00,0.000000000000000000e+00,0.000000000000000000e+00,1.504816622523110709e+04,1.504816622523111073e+04,1.504816622523111073e+04,1.504816622523111073e+04
2.750000000000000000e+00,0.000000000000000000e+00,0.000000000000000000e+00,9.991484405809418490e-02,0.000000000000000000e+00,0.000000000000000000e+00,-4.087471471142605645e-02,0.000000000000000000e+00,0.000000000000000000e+00,0.000000000000000000e+00,0.000000000000000000e+00,0.000000000000000000e+00,0.000000000000000000e+00,1.505536575013163383e+04,1.505536575013163019e+04,1.505536575013163019e+04,1.505536575013163019e+04
2.770833333333333037e+00,-2.579958181758000063e-39,-2.262802706099080489e-28,9.975511888419066886e-02,-1.238379927244573067e-36,-2.033086893520679140e-25,-3.579339966017556357e-02,9.729506811554084481e-19,0.000000000000000000e+00,0.000000000000000000e+00,2.318919797396424198e-16,-3.478379696094636297e-16,-2.081799112632950710e-16,1.504837148745132072e+04,1.504837148745132072e+04,1.504837148745132072e+04,1.504837148745132072e+04
2.791666666666666519e+00,0.000000000000000000e+00,0.000000000000000000e+00,9.991484405809418490e-02,0.000000000000000000e+00,0.000000000000000000e+00,-4.087471471142605645e-02,0.000000000000000000e+00,0.000000000000000000e+00,0.000000000000000000e+00,0.000000000000000000e+00,0.000000000000000000e+00,0.000000000000000000e+00,1.505557270782060732e+04,1.505557270782060368e+04,1.505557270782060368e+04,1.505557270782060368e+04
2.812500000000000000e+00,-2.579960166413799310e-39,-1.700267993193994452e-28,9.975512151519258519e-02,-1.238379927243840228e-36,-1.527632931058017401e-25,-3.579213678644794366e-02,7.310983627518147377e-19,0.000000000000000000e+00,0.000000000000000000e+00,2.318919797396424198e-16,-2.318919797396424198e-16,-1.249079467579770623e-16,1.504857674687138933e+04,1.504857674687138751e+04,1.504857674687138751e+04,1.504857674687138751e+04
2.833333333333333037e+00,0.000000000000000000e+00,0.000000000000000000e+00,9.991484405809418490e-02,0.000000000000000000e+00,0.000000000000000000e+00,-4.087471471142605645e-02,0.000000000000000000e+00,0.000000000000000000e+00,0.000000000000000000e+00,0.000000000000000000e+00,0.000000000000000000e+00,0.000000000000000000e+00,1.505577966266433396e+04,1.505577966266433577e+04,1.505577966266433577e+04,1.505577966266433577e+04
2.854166666666666519e+00,0.000000000000000000e+00,-6.916138897780388498e-29,9.975512414619448764e-02,-6.191904399393118761e-37,-6.213806928106632997e-26,-3.579087391272994800e-02,2.973969318393968460e-19,0.000000000000000000e+00,0.000000000000000000e+00,-7.375384568899662043e-36,1.159459898698212099e-16,8.327196450531804565e-17,1.504868993308087011e+04,1.504868993308087556e+04,1.504868993308087556e+04,1.504868993308087374e+04
2.875000000000000000e+00,0.000000000000000000e+00,0.000000000000000000e+00,9.991484405809418490e-02,0.000000000000000000e+00,0.000000000000000000e+00,-4.087471471142605645e-02,0.000000000000000000e+00,0.000000000000000000e+00,0.000000000000000000e+00,0.000000000000000000e+00,0.000000000000000000e+00,0.000000000000000000e+00,1.505579112383654683e+04,1.505579112383654683e+04,1.505579112383654683e+04,1.505579112383654683e+04
2.895833333333333037e+00,0.000000000000000000e+00,0.000000000000000000e+00,9.975512429190058761e-02,0.000000000000000000e+00,0.000000000000000000e+00,-3.579080397419724668e-02,0.000000000000000000e+00,0.000000000000000000e+00,0.000000000000000000e+00,0.000000000000000000e+00,0.000000000000000000e+00,0.000000000000000000e+00,1.504868983370369642e+04,1.504868983370369278e+04,1.504868983370369278e+04,1.504868983370369278e+04
