t,x,y,z,vx,vy,vz,roll,pitch,yaw,wx,wy,wz,rpm0,rpm1,rpm2,rpm3
0.000000000000000000e+00,5.999999999999999778e-01,0.000000000000000000e+00,1.000000000000000056e-01,0.000000000000000000e+00,0.000000000000000000e+00,0.000000000000000000e+00,0.000000000000000000e+00,0.000000000000000000e+00,0.000000000000000000e+00,0.000000000000000000e+00,0.000000000000000000e+00,0.000000000000000000e+00,1.526600082700115854e+04,1.526600082700115854e+04,1.526600082700115854e+04,1.526600082700115854e+04
2.083333333333333218e-02,5.999999999999999778e-01,0.000000000000000000e+00,9.975781534101250958e-02,0.000000000000000000e+00,0.000000000000000000e+00,-3.449910762900893629e-02,0.000000000000000000e+00,0.000000000000000000e+00,0.000000000000000000e+00,0.000000000000000000e+00,0.000000000000000000e+00,0.000000000000000000e+00,1.531452594864377534e+04,1.531452594864377170e+04,1.531452594864377170e+04,1.531452594864377170e+04
4.166666666666666435e-02,5.999999999999999778e-01,0.000000000000000000e+00,9.991484405809418490e-02,0.000000000000000000e+00,0.000000000000000000e+00,-4.087471471142605645e-02,0.000000000000000000e+00,0.000000000000000000e+00,0.000000000000000000e+00,0.000000000000000000e+00,0.000000000000000000e+00,0.000000000000000000e+00,1.532346638169900507e+04,1.532346638169900507e+04,1.532346638169900507e+04,1.532346638169900507e+04
6.250000000000000000e-02,5.999999999999999778e-01,0.000000000000000000e+00,9.975855749134544814e-02,0.000000000000000000e+00,0.000000000000000000e+00,-3.414287741812073451e-02,0.000000000000000000e+00,0.000000000000000000e+00,0.000000000000000000e+00,0.000000000000000000e+00,0.000000000000000000e+00,0.000000000000000000e+00,1.531434824876940002e+04,1.531434824876940002e+04,1.531434824876940002e+04,1.531434824876940002e+04
8.333333333333332871e-02,5.999999999999999778e-01,0.000000000000000000e+00,9.991484405809418490e-02,0.000000000000000000e+00,0.000000000000000000e+00,-4.087471471142605645e-02,0.000000000000000000e+00,0.000000000000000000e+00,0.000000000000000000e+00,0.000000000000000000e+00,0.000000000000000000e+00,0.000000000000000000e+00,1.532378588184315777e+04,1.532378588184315777e+04,1.532378588184315777e+04,1.532378588184315777e+04
1.041666666666666574e-01,5.999999999999999778e-01,0.000000000000000000e+00,9.975856162538497551e-02,0.000000000000000000e+00,0.000000000000000000e+00,-3.414089308995241906e-02,0.000000000000000000e+00,0.000000000000000000e+00,0.000000000000000000e+00,0.000000000000000000e+00,0.000000000000000000e+00,0.000000000000000000e+00,1.531466516853255234e+04,1.531466516853255780e+04,1.531466516853255780e+04,1.531466516853255598e+04
1.250000000000000000e-01,5.999999999999999778e-01,0.000000000000000000e+00,9.991484405809418490e-02,0.000000000000000000e+00,0.000000000000000000e+00,-4.087471471142605645e-02,0.000000000000000000e+00,0.000000000000000000e+00,0.000000000000000000e+00,0.000000000000000000e+00,0.000000000000000000e+00,0.000000000000000000e+00,1.532410537532528906e+04,1.532410537532528542e+04,1.532410537532528542e+04,1.532410537532528542e+04
1.458333333333333148e-01,5.999999999999999778e-01,-1.706042577168260704e-28,9.975856575942444737e-02,0.000000000000000000e+00,-1.497336630072632491e-25,-3.413890876180481621e-02,7.662725539647844548e-19,0.000000000000000000e+00,0.000000000000000000e+00,2.318919797396424198e-16,-2.318919797396424198e-16,-1.665439290106360913e-16,1.531498208173698004e+04,1.531498208173697822e+04,1.531498208173697822e+04,1.531498208173697822e+04
1.666666666666666574e-01,5.999999999999999778e-01,0.000000000000000000e+00,9.991484405809418490e-02,0.000000000000000000e+00,0.000000000000000000e+00,-4.087471471142605645e-02,0.000000000000000000e+00,0.000000000000000000e+00,0.000000000000000000e+00,0.000000000000000000e+00,0.000000000000000000e+00,0.000000000000000000e+00,1.532442486214580640e+04,1.532442486214580822e+04,1.532442486214580822e+04,1.532442486214580822e+04
1.875000000000000000e-01,5.999999999999999778e-01,-1.262998551405714274e-28,9.975856989346389148e-02,3.095947436522640926e-37,-1.108459826284500732e-25,-3.413692443367787738e-02,5.673084009225078466e-19,0.000000000000000000e+00,0.000000000000000000e+00,-2.318919797396424198e-16,1.159459898698212099e-16,8.327196450531804565e-17,1.531529898838307599e+04,1.531529898838307417e+04,1.531529898838307417e+04,1.531529898838307417e+04
2.083333333333333148e-01,5.999999999999999778e-01,0.000000000000000000e+00,9.991484405809418490e-02,0.000000000000000000e+00,0.000000000000000000e+00,-4.087471471142605645e-02,0.000000000000000000e+00,0.000000000000000000e+00,0.000000000000000000e+00,0.000000000000000000e+00,0.000000000000000000e+00,0.000000000000000000e+00,1.532474434230514089e+04,1.532474434230514089e+04,1.532474434230514089e+04,1.532474434230514089e+04
2.291666666666666574e-01,5.999999999999999778e-01,0.000000000000000000e+00,9.975857402750328007e-02,0.000000000000000000e+00,0.000000000000000000e+00,-3.413494010557162339e-02,0.000000000000000000e+00,0.000000000000000000e+00,0.000000000000000000e+00,0.000000000000000000e+00,0.000000000000000000e+00,0.000000000000000000e+00,1.531561588847124949e+04,1.531561588847124949e+04,1.531561588847124949e+04,1.531561588847124949e+04
2.500000000000000000e-01,5.999999999999999778e-01,0.000000000000000000e+00,9.991484405809418490e-02,0.000000000000000000e+00,0.000000000000000000e+00,-4.087471471142605645e-02,0.000000000000000000e+00,0.000000000000000000e+00,0.000000000000000000e+00,0.000000000000000000e+00,0.000000000000000000e+00,0.000000000000000000e+00,1.532506381580370362e+04,1.532506381580369998e+04,1.532506381580369998e+04,1.532506381580369998e+04
2.708333333333333148e-01,5.999999999999999778e-01,-2.086946692281642282e-28,9.975857816154262703e-02,0.000000000000000000e+00,-1.831485709432858565e-25,-3.413295577748603343e-02,9.375051921573135373e-19,0.000000000000000000e+00,0.000000000000000000e+00,2.318919797396424198e-16,-3.478379696094636297e-16,-1.665439290106360913e-16,1.531593278200190798e+04,1.531593278200190980e+04,1.531593278200190980e+04,1.531593278200190980e+04
2.916666666666666297e-01,5.999999999999999778e-01,0.000000000000000000e+00,9.991484405809418490e-02,0.000000000000000000e+00,0.000000000000000000e+00,-4.087471471142605645e-02,0.000000000000000000e+00,0.000000000000000000e+00,0.000000000000000000e+00,0.000000000000000000e+00,0.000000000000000000e+00,0.000000000000000000e+00,1.532538328264190204e+04,1.532538328264190386e+04,1.532538328264190386e+04,1.532538328264190386e+04
3.125000000000000000e-01,5.999999999999999778e-01,-1.262798094297646219e-28,9.975858229558191848e-02,9.287851835915759270e-37,-1.108188462200419896e-25,-3.413097144942112138e-02,5.673084009225078466e-19,0.000000000000000000e+00,0.000000000000000000e+00,-2.318919797396424198e-16,1.159459898698212099e-16,8.327196450531804565e-17,1.531624966897546619e+04,1.531624966897546983e+04,1.531624966897546983e+04,1.531624966897546801e+04
3.333333333333333148e-01,5.999999999999999778e-01,0.000000000000000000e+00,9.991484405809418490e-02,0.000000000000000000e+00,0.000000000000000000e+00,-4.087471471142605645e-02,0.000000000000000000e+00,0.000000000000000000e+00,0.000000000000000000e+00,0.000000000000000000e+00,0.000000000000000000e+00,0.000000000000000000e+00,1.532570274282016544e+04,1.532570274282016908e+04,1.532570274282016908e+04,1.532570274282016726e+04
3.541666666666666297e-01,5.999999999999999778e-01,-1.743523264028083139e-28,9.975858642962118217e-02,-2.476760807123196652e-36,-1.530012504287310012e-25,-3.412898712137688029e-02,7.833142282120634307e-19,0.000000000000000000e+00,0.000000000000000000e+00,-1.159459898698212099e-16,3.478379696094636297e-16,8.327196450531804565e-17,1.531656654939232430e+04,1.531656654939232794e+04,1.531656654939232794e+04,1.531656654939232794e+04
3.750000000000000000e-01,5.999999999999999778e-01,0.000000000000000000e+00,9.991484405809418490e-02,0.000000000000000000e+00,0.000000000000000000e+00,-4.087471471142605645e-02,0.000000000000000000e+00,0.000000000000000000e+00,0.000000000000000000e+00,0.000000000000000000e+00,0.000000000000000000e+00,0.000000000000000000e+00,1.532602219633890672e+04,1.532602219633890672e+04,1.532602219633890672e+04,1.532602219633890672e+04
3.958333333333333148e-01,5.999999999999999778e-01,0.000000000000000000e+00,9.975859056366039035e-02,0.000000000000000000e+00,0.000000000000000000e+00,-3.412700279335332404e-02,0.000000000000000000e+00,0.000000000000000000e+00,0.000000000000000000e+00,0.000000000000000000e+00,0.000000000000000000e+00,0.000000000000000000e+00,1.531688342325289341e+04,1.531688342325289341e+04,1.531688342325289341e+04,1.531688342325289341e+04
4.166666666666666297e-01,5.999999999999999778e-01,0.000000000000000000e+00,9.991484405809418490e-02,0.000000000000000000e+00,0.000000000000000000e+00,-4.087471471142605645e-02,0.000000000000000000e+00,0.000000000000000000e+00,0.000000000000000000e+00,0.000000000000000000e+00,0.000000000000000000e+00,0.000000000000000000e+00,1.532634164319853880e+04,1.532634164319853880e+04,1.532634164319853880e+04,1.532634164319853880e+04
4.375000000000000000e-01,5.999999999999999778e-01,0.000000000000000000e+00,9.975859469769955690e-02,0.000000000000000000e+00,0.000000000000000000e+00,-3.412501846535043876e-02,0.000000000000000000e+00,0.000000000000000000e+00,0.000000000000000000e+00,0.000000000000000000e+00,0.000000000000000000e+00,0.000000000000000000e+00,1.531720029055757368e+04,1.531720029055757550e+04,1.531720029055757550e+04,1.531720029055757550e+04
4.583333333333333148e-01,5.999999999999999778e-01,0.000000000000000000e+00,9.991484405809418490e-02,0.000000000000000000e+00,0.000000000000000000e+00,-4.087471471142605645e-02,0.000000000000000000e+00,0.000000000000000000e+00,0.000000000000000000e+00,0.000000000000000000e+00,0.000000000000000000e+00,0.000000000000000000e+00,1.532666108339948187e+04,1.532666108339948369e+04,1.532666108339948369e+04,1.532666108339948369e+04
4.791666666666666297e-01,5.999999999999999778e-01,-1.627041338223516938e-28,9.975859883173868181e-02,0.000000000000000000e+00,-1.427671939776621647e-25,-3.412303413736819668e-02,7.310983627518147377e-19,0.000000000000000000e+00,0.000000000000000000e+00,-2.318919797396424198e-16,2.318919797396424198e-16,1.249079467579770623e-16,1.531751715130677803e+04,1.531751715130678167e+04,1.531751715130678167e+04,1.531751715130678167e+04
5.000000000000000000e-01,5.999999999999999778e-01,0.000000000000000000e+00,9.991484405809418490e-02,0.000000000000000000e+00,0.000000000000000000e+00,-4.087471471142605645e-02,0.000000000000000000e+00,0.000000000000000000e+00,0.000000000000000000e+00,0.000000000000000000e+00,0.000000000000000000e+00,0.000000000000000000e+00,1.532698051694215428e+04,1.532698051694215064e+04,1.532698051694215064e+04,1.532698051694215064e+04
5.208333333333332593e-01,5.999999999999999778e-01,-1.626955241261182177e-28,9.975860296577775121e-02,0.000000000000000000e+00,-1.427555402348065445e-25,-3.412104980940663945e-02,7.310983627518147377e-19,0.000000000000000000e+00,0.000000000000000000e+00,2.318919797396424198e-16,-2.318919797396424198e-16,-1.249079467579770623e-16,1.531783400550091756e+04,1.531783400550091574e+04,1.531783400550091574e+04,1.531783400550091574e+04
5.416666666666666297e-01,5.999999999999999778e-01,0.000000000000000000e+00,9.991484405809418490e-02,0.000000000000000000e+00,0.000000000000000000e+00,-4.087471471142605645e-02,0.000000000000000000e+00,0.000000000000000000e+00,0.000000000000000000e+00,0.000000000000000000e+00,0.000000000000000000e+00,0.000000000000000000e+00,1.532729994382696532e+04,1.532729994382696168e+04,1.532729994382696168e+04,1.532729994382696168e+04
5.625000000000000000e-01,5.999999999999999778e-01,-2.086173821838437288e-28,9.975860709981679286e-02,0.000000000000000000e+00,-1.830439539853650526e-25,-3.411906548146576706e-02,9.375051921573135373e-19,0.000000000000000000e+00,0.000000000000000000e+00,2.318919797396424198e-16,-3.478379696094636297e-16,-1.665439290106360913e-16,1.531815085314038151e+04,1.531815085314038151e+04,1.531815085314038151e+04,1.531815085314038151e+04
5.833333333333332593e-01,5.999999999999999778e-01,0.000000000000000000e+00,9.991484405809418490e-02,0.000000000000000000e+00,0.000000000000000000e+00,-4.087471471142605645e-02,0.000000000000000000e+00,0.000000000000000000e+00,0.000000000000000000e+00,0.000000000000000000e+00,0.000000000000000000e+00,0.000000000000000000e+00,1.532761936405433153e+04,1.532761936405432971e+04,1.532761936405432971e+04,1.532761936405432971e+04
6.041666666666666297e-01,5.999999999999999778e-01,-1.930107116979864354e-29,9.975861123385577900e-02,8.391588796751328094e-57,-1.693456092668398991e-26,-3.411708115354553789e-02,8.674166155176723389e-20,0.000000000000000000e+00,0.000000000000000000e+00,-4.451107301576068854e-56,-1.865980850425501738e-36,-4.163598225265902282e-17,1.531846769422559191e+04,1.531846769422559555e+04,1.531846769422559555e+04,1.531846769422559555e+04
6.250000000000000000e-01,5.999999999999999778e-01,0.000000000000000000e+00,9.991484405809418490e-02,0.000000000000000000e+00,0.000000000000000000e+00,-4.087471471142605645e-02,0.000000000000000000e+00,0.000000000000000000e+00,0.000000000000000000e+00,0.000000000000000000e+00,0.000000000000000000e+00,0.000000000000000000e+00,1.532793877762467309e+04,1.532793877762467309e+04,1.532793877762467309e+04,1.532793877762467309e+04
6.458333333333332593e-01,5.999999999999999778e-01,0.000000000000000000e+00,9.975861536789472350e-02,0.000000000000000000e+00,0.000000000000000000e+00,-3.411509682564599355e-02,0.000000000000000000e+00,0.000000000000000000e+00,0.000000000000000000e+00,0.000000000000000000e+00,0.000000000000000000e+00,0.000000000000000000e+00,1.531878452875695075e+04,1.531878452875695439e+04,1.531878452875695439e+04,1.531878452875695439e+04
6.666666666666666297e-01,5.999999999999999778e-01,0.000000000000000000e+00,9.991484405809418490e-02,0.000000000000000000e+00,0.000000000000000000e+00,-4.087471471142605645e-02,0.000000000000000000e+00,0.000000000000000000e+00,0.000000000000000000e+00,0.000000000000000000e+00,0.000000000000000000e+00,0.000000000000000000e+00,1.532825818453840475e+04,1.532825818453840657e+04,1.532825818453840657e+04,1.532825818453840657e+04
6.875000000000000000e-01,5.999999999999999778e-01,-1.217129845141270769e-28,9.975861950193362637e-02,9.287851835919425969e-37,-1.067835562043943783e-25,-3.411311249776711324e-02,5.470525333192132350e-19,0.000000000000000000e+00,0.000000000000000000e+00,-2.318919797396424198e-16,1.159459898698212099e-16,4.163598225265902282e-17,1.531910135673487275e+04,1.531910135673486911e+04,1.531910135673486911e+04,1.531910135673486911e+04
7.083333333333332593e-01,5.999999999999999778e-01,0.000000000000000000e+00,9.991484405809418490e-02,0.000000000000000000e+00,0.000000000000000000e+00,-4.087471471142605645e-02,0.000000000000000000e+00,0.000000000000000000e+00,0.000000000000000000e+00,0.000000000000000000e+00,0.000000000000000000e+00,0.000000000000000000e+00,1.532857758479594486e+04,1.532857758479594668e+04,1.532857758479594668e+04,1.532857758479594668e+04
7.291666666666666297e-01,5.999999999999999778e-01,-1.262130018907875762e-28,9.975862363597248761e-02,3.095952199696559381e-37,-1.107284191125895607e-25,-3.411112816990888308e-02,5.673084009225078466e-19,0.000000000000000000e+00,0.000000000000000000e+00,-2.318919797396424198e-16,1.159459898698212099e-16,8.327196450531804565e-17,1.531941817815975264e+04,1.531941817815974900e+04,1.531941817815974900e+04,1.531941817815974900e+04
7.500000000000000000e-01,5.999999999999999778e-01,0.000000000000000000e+00,9.991484405809418490e-02,0.000000000000000000e+00,0.000000000000000000e+00,-4.087471471142605645e-02,0.000000000000000000e+00,0.000000000000000000e+00,0.000000000000000000e+00,0.000000000000000000e+00,0.000000000000000000e+00,0.000000000000000000e+00,1.532889697839770997e+04,1.532889697839770997e+04,1.532889697839770997e+04,1.532889697839770997e+04
7.708333333333332593e-01,5.999999999999999778e-01,0.000000000000000000e+00,9.975862777001129333e-02,0.000000000000000000e+00,0.000000000000000000e+00,-3.410914384207132388e-02,0.000000000000000000e+00,0.000000000000000000e+00,0.000000000000000000e+00,0.000000000000000000e+00,0.000000000000000000e+00,0.000000000000000000e+00,1.531973499303199787e+04,1.531973499303199605e+04,1.531973499303199605e+04,1.531973499303199605e+04
7.916666666666666297e-01,5.999999999999999778e-01,0.000000000000000000e+00,9.991484405809418490e-02,0.000000000000000000e+00,0.000000000000000000e+00,-4.087471471142605645e-02,0.000000000000000000e+00,0.000000000000000000e+00,0.000000000000000000e+00,0.000000000000000000e+00,0.000000000000000000e+00,0.000000000000000000e+00,1.532921636534411118e+04,1.532921636534411118e+04,1.532921636534411118e+04,1.532921636534411118e+04
8.125000000000000000e-01,5.999999999999999778e-01,0.000000000000000000e+00,9.975863190405007130e-02,0.000000000000000000e+00,0.000000000000000000e+00,-3.410715951425442871e-02,0.000000000000000000e+00,0.000000000000000000e+00,0.000000000000000000e+00,0.000000000000000000e+00,0.000000000000000000e+00,0.000000000000000000e+00,1.532005180135202136e+04,1.532005180135202136e+04,1.532005180135202136e+04,1.532005180135202136e+04
8.333333333333332593e-01,5.999999999999999778e-01,0.000000000000000000e+00,9.991484405809418490e-02,0.000000000000000000e+00,0.000000000000000000e+00,-4.087471471142605645e-02,0.000000000000000000e+00,0.000000000000000000e+00,0.000000000000000000e+00,0.000000000000000000e+00,0.000000000000000000e+00,0.000000000000000000e+00,1.532953574563557049e+04,1.532953574563556685e+04,1.532953574563556685e+04,1.532953574563556685e+04
8.541666666666666297e-01,5.999999999999999778e-01,-2.085401094512184288e-28,9.975863603808879376e-02,9.526340509635620455e-43,-1.829393713849614460e-25,-3.410517518645819063e-02,9.375051921573135373e-19,0.000000000000000000e+00,0.000000000000000000e+00,2.318919797396424198e-16,-3.478379696094636297e-16,-1.665439290106360913e-16,1.532036860312022145e+04,1.532036860312022509e+04,1.532036860312022509e+04,1.532036860312022327e+04
8.750000000000000000e-01,5.999999999999999778e-01,0.000000000000000000e+00,9.991484405809418490e-02,0.000000000000000000e+00,0.000000000000000000e+00,-4.087471471142605645e-02,0.000000000000000000e+00,0.000000000000000000e+00,0.000000000000000000e+00,0.000000000000000000e+00,0.000000000000000000e+00,0.000000000000000000e+00,1.532985511927249536e+04,1.532985511927249536e+04,1.532985511927249536e+04,1.532985511927249536e+04
8.958333333333332593e-01,5.999999999999999778e-01,0.000000000000000000e+00,9.975864017212747459e-02,0.000000000000000000e+00,0.000000000000000000e+00,-3.410319085868261657e-02,0.000000000000000000e+00,0.000000000000000000e+00,0.000000000000000000e+00,0.000000000000000000e+00,0.000000000000000000e+00,0.000000000000000000e+00,1.532068539833702016e+04,1.532068539833701652e+04,1.532068539833701652e+04,1.532068539833701652e+04
9.166666666666666297e-01,5.999999999999999778e-01,0.000000000000000000e+00,9.991484405809418490e-02,0.000000000000000000e+00,0.000000000000000000e+00,-4.087471471142605645e-02,0.000000000000000000e+00,0.000000000000000000e+00,0.000000000000000000e+00,0.000000000000000000e+00,0.000000000000000000e+00,0.000000000000000000e+00,1.533017448625530960e+04,1.533017448625530778e+04,1.533017448625530778e+04,1.533017448625530960e+04
9.375000000000000000e-01,5.999999999999999778e-01,-1.201350432150781514e-28,9.975864430616611378e-02,6.191904399385790375e-37,-1.053810025765179394e-25,-3.410120653092768572e-02,5.401317972145386322e-19,0.000000000000000000e+00,0.000000000000000000e+00,1.159459898698212099e-16,-2.318919797396424198e-16,2.693600265336783261e-35,1.532100218700280129e+04,1.532100218700280311e+04,1.532100218700280311e+04,1.532100218700280311e+04
9.583333333333332593e-01,5.999999999999999778e-01,0.000000000000000000e+00,9.991484405809418490e-02,0.000000000000000000e+00,0.000000000000000000e+00,-4.087471471142605645e-02,0.000000000000000000e+00,0.000000000000000000e+00,0.000000000000000000e+00,0.000000000000000000e+00,0.000000000000000000e+00,0.000000000000000000e+00,1.533049384658442432e+04,1.533049384658442432e+04,1.533049384658442432e+04,1.533049384658442432e+04
9.791666666666666297e-01,5.999999999999999778e-01,0.000000000000000000e+00,9.975864844020469746e-02,0.000000000000000000e+00,0.000000000000000000e+00,-3.409922220319343278e-02,0.000000000000000000e+00,0.000000000000000000e+00,0.000000000000000000e+00,0.000000000000000000e+00,0.000000000000000000e+00,0.000000000000000000e+00,1.532131896911799231e+04,1.532131896911799413e+04,1.532131896911799413e+04,1.532131896911799413e+04
1.000000000000000000e+00,5.999999999999999778e-01,0.000000000000000000e+00,9.991484405809418490e-02,0.000000000000000000e+00,0.000000000000000000e+00,-4.087471471142605645e-02,0.000000000000000000e+00,0.000000000000000000e+00,0.000000000000000000e+00,0.000000000000000000e+00,0.000000000000000000e+00,0.000000000000000000e+00,1.533081320026025969e+04,1.533081320026025969e+04,1.533081320026025969e+04,1.533081320026025969e+04
1.020833333333333259e+00,5.999999999999999778e-01,0.000000000000000000e+00,9.975865257424323951e-02,0.000000000000000000e+00,0.000000000000000000e+00,-3.409723787547982998e-02,0.000000000000000000e+00,0.000000000000000000e+00,0.000000000000000000e+00,0.000000000000000000e+00,0.000000000000000000e+00,0.000000000000000000e+00,1.532163574468298975e+04,1.532163574468298975e+04,1.532163574468298975e+04,1.532163574468298975e+04
1.041666666666666519e+00,5.999999999999999778e-01,0.000000000000000000e+00,9.991484405809418490e-02,0.000000000000000000e+00,0.000000000000000000e+00,-4.087471471142605645e-02,0.000000000000000000e+00,0.000000000000000000e+00,0.000000000000000000e+00,0.000000000000000000e+00,0.000000000000000000e+00,0.000000000000000000e+00,1.533113254728322681e+04,1.533113254728323045e+04,1.533113254728323045e+04,1.533113254728323045e+04
1.062500000000000000e+00,5.999999999999999778e-01,-2.853798745387368752e-28,9.975865670828175380e-02,-9.526347836574612175e-43,-2.503101964016950498e-25,-3.409525354778687040e-02,1.283282777890388276e-18,0.000000000000000000e+00,0.000000000000000000e+00,-4.637839594792848396e-16,3.478379696094636297e-16,2.081799112632950710e-16,1.532195251369819562e+04,1.532195251369819925e+04,1.532195251369819925e+04,1.532195251369819925e+04
1.083333333333333259e+00,5.999999999999999778e-01,0.000000000000000000e+00,9.991484405809418490e-02,0.000000000000000000e+00,0.000000000000000000e+00,-4.087471471142605645e-02,0.000000000000000000e+00,0.000000000000000000e+00,0.000000000000000000e+00,0.000000000000000000e+00,0.000000000000000000e+00,0.000000000000000000e+00,1.533145188765375133e+04,1.533145188765374769e+04,1.533145188765374769e+04,1.533145188765374769e+04
1.104166666666666519e+00,5.999999999999999778e-01,-2.794360837184316565e-28,9.975866084232021258e-02,0.000000000000000000e+00,-2.450897794970330374e-25,-3.409326922011456790e-02,1.256621520343822201e-18,0.000000000000000000e+00,0.000000000000000000e+00,4.637839594792848396e-16,-3.478379696094636297e-16,-1.665439290106360913e-16,1.532226927616403009e+04,1.532226927616403009e+04,1.532226927616403009e+04,1.532226927616403009e+04
1.125000000000000000e+00,5.999999999999999778e-01,0.000000000000000000e+00,9.991484405809418490e-02,0.000000000000000000e+00,0.000000000000000000e+00,-4.087471471142605645e-02,0.000000000000000000e+00,0.000000000000000000e+00,0.000000000000000000e+00,0.000000000000000000e+00,0.000000000000000000e+00,0.000000000000000000e+00,1.533177122137223159e+04,1.533177122137223159e+04,1.533177122137223159e+04,1.533177122137223159e+04
1.145833333333333259e+00,5.999999999999999778e-01,0.000000000000000000e+00,9.975866497635861585e-02,0.000000000000000000e+00,0.000000000000000000e+00,-3.409128489246292942e-02,0.000000000000000000e+00,0.000000000000000000e+00,0.000000000000000000e+00,0.000000000000000000e+00,0.000000000000000000e+00,0.000000000000000000e+00,1.532258603208088789e+04,1.532258603208088425e+04,1.532258603208088425e+04,1.532258603208088425e+04
1.166666666666666519e+00,5.999999999999999778e-01,0.000000000000000000e+00,9.991484405809418490e-02,0.000000000000000000e+00,0.000000000000000000e+00,-4.087471471142605645e-02,0.000000000000000000e+00,0.000000000000000000e+00,0.000000000000000000e+00,0.000000000000000000e+00,0.000000000000000000e+00,0.000000000000000000e+00,1.533209054843909871e+04,1.533209054843909871e+04,1.533209054843909871e+04,1.533209054843909871e+04
1.187500000000000000e+00,5.999999999999999778e-01,0.000000000000000000e+00,9.975866911039699136e-02,0.000000000000000000e+00,0.000000000000000000e+00,-3.408930056483192722e-02,0.000000000000000000e+00,0.000000000000000000e+00,0.000000000000000000e+00,0.000000000000000000e+00,0.000000000000000000e+00,0.000000000000000000e+00,1.532290278144917465e+04,1.532290278144917283e+04,1.532290278144917283e+04,1.532290278144917283e+04
1.208333333333333259e+00,5.999999999999999778e-01,0.000000000000000000e+00,9.991484405809418490e-02,0.000000000000000000e+00,0.000000000000000000e+00,-4.087471471142605645e-02,0.000000000000000000e+00,0.000000000000000000e+00,0.000000000000000000e+00,0.000000000000000000e+00,0.000000000000000000e+00,0.000000000000000000e+00,1.533240986885476013e+04,1.533240986885476013e+04,1.533240986885476013e+04,1.533240986885476013e+04
1.229166666666666519e+00,5.999999999999999778e-01,0.000000000000000000e+00,9.975867324443531137e-02,0.000000000000000000e+00,0.000000000000000000e+00,-3.408731623722158904e-02,0.000000000000000000e+00,0.000000000000000000e+00,0.000000000000000000e+00,0.000000000000000000e+00,0.000000000000000000e+00,0.000000000000000000e+00,1.532321952426929602e+04,1.532321952426929784e+04,1.532321952426929784e+04,1.532321952426929784e+04
1.250000000000000000e+00,5.999999999999999778e-01,0.000000000000000000e+00,9.991484405809418490e-02,0.000000000000000000e+00,0.000000000000000000e+00,-4.087471471142605645e-02,0.000000000000000000e+00,0.000000000000000000e+00,0.000000000000000000e+00,0.000000000000000000e+00,0.000000000000000000e+00,0.000000000000000000e+00,1.533272918261963605e+04,1.533272918261963605e+04,1.533272918261963605e+04,1.533272918261963605e+04
1.270833333333333259e+00,5.999999999999999778e-01,0.000000000000000000e+00,9.975867737847360361e-02,0.000000000000000000e+00,0.000000000000000000e+00,-3.408533190963187326e-02,0.000000000000000000e+00,0.000000000000000000e+00,0.000000000000000000e+00,0.000000000000000000e+00,0.000000000000000000e+00,0.000000000000000000e+00,1.532353626054166853e+04,1.532353626054166853e+04,1.532353626054166853e+04,1.532353626054166853e+04
1.291666666666666519e+00,5.999999999999999778e-01,0.000000000000000000e+00,9.991484405809418490e-02,0.000000000000000000e+00,0.000000000000000000e+00,-4.087471471142605645e-02,0.000000000000000000e+00,0.000000000000000000e+00,0.000000000000000000e+00,0.000000000000000000e+00,0.000000000000000000e+00,0.000000000000000000e+00,1.533304848973413391e+04,1.533304848973413755e+04,1.533304848973413755e+04,1.533304848973413755e+04
1.312500000000000000e+00,5.999999999999999778e-01,-2.852892395481324726e-28,9.975868151251184035e-02,-1.238380879878623752e-36,-2.501875578972585479e-25,-3.408334758206284926e-02,1.283282777890388276e-18,0.000000000000000000e+00,0.000000000000000000e+00,-4.637839594792848396e-16,3.478379696094636297e-16,2.081799112632950710e-16,1.532385299026668690e+04,1.532385299026669054e+04,1.532385299026669054e+04,1.532385299026669054e+04
1.333333333333333259e+00,5.999999999999999778e-01,0.000000000000000000e+00,9.991484405809418490e-02,0.000000000000000000e+00,0.000000000000000000e+00,-4.087471471142605645e-02,0.000000000000000000e+00,0.000000000000000000e+00,0.000000000000000000e+00,0.000000000000000000e+00,0.000000000000000000e+00,0.000000000000000000e+00,1.533336779019867936e+04,1.533336779019868118e+04,1.533336779019868118e+04,1.533336779019868118e+04
1.354166666666666519e+00,5.999999999999999778e-01,-6.611141848831043047e-29,9.975868564655003545e-02,0.000000000000000000e+00,-5.797547780060653334e-26,-3.408136325451445459e-02,2.973969318393968460e-19,0.000000000000000000e+00,0.000000000000000000e+00,-7.375385124970480816e-36,1.159459898698212099e-16,8.327196450531804565e-17,1.532416971344476769e+04,1.532416971344476769e+04,1.532416971344476769e+04,1.532416971344476769e+04
1.375000000000000000e+00,5.999999999999999778e-01,0.000000000000000000e+00,9.991484405809418490e-02,0.000000000000000000e+00,0.000000000000000000e+00,-4.087471471142605645e-02,0.000000000000000000e+00,0.000000000000000000e+00,0.000000000000000000e+00,0.000000000000000000e+00,0.000000000000000000e+00,0.000000000000000000e+00,1.533368708401369076e+04,1.533368708401368713e+04,1.533368708401368713e+04,1.533368708401368713e+04
1.395833333333333259e+00,5.999999999999999778e-01,-2.162757608115511583e-28,9.975868978058817504e-02,0.000000000000000000e+00,-1.896545251996154024e-25,-3.407937892698668925e-02,9.729506811554084481e-19,0.000000000000000000e+00,0.000000000000000000e+00,2.318919797396424198e-16,-3.478379696094636297e-16,-2.081799112632950710e-16,1.532448643007630380e+04,1.532448643007630744e+04,1.532448643007630744e+04,1.532448643007630744e+04
1.416666666666666519e+00,5.999999999999999778e-01,0.000000000000000000e+00,9.991484405809418490e-02,0.000000000000000000e+00,0.000000000000000000e+00,-4.087471471142605645e-02,0.000000000000000000e+00,0.000000000000000000e+00,0.000000000000000000e+00,0.000000000000000000e+00,0.000000000000000000e+00,0.000000000000000000e+00,1.533400637117956649e+04,1.533400637117956649e+04,1.533400637117956649e+04,1.533400637117956649e+04
1.437500000000000000e+00,5.999999999999999778e-01,0.000000000000000000e+00,9.975869391462628688e-02,0.000000000000000000e+00,0.000000000000000000e+00,-3.407739459947957406e-02,0.000000000000000000e+00,0.000000000000000000e+00,0.000000000000000000e+00,0.000000000000000000e+00,0.000000000000000000e+00,0.000000000000000000e+00,1.532480314016171542e+04,1.532480314016171542e+04,1.532480314016171542e+04,1.532480314016171542e+04
1.458333333333333259e+00,5.999999999999999778e-01,0.000000000000000000e+00,9.991484405809418490e-02,0.000000000000000000e+00,0.000000000000000000e+00,-4.087471471142605645e-02,0.000000000000000000e+00,0.000000000000000000e+00,0.000000000000000000e+00,0.000000000000000000e+00,0.000000000000000000e+00,0.000000000000000000e+00,1.533432565169673398e+04,1.533432565169673398e+04,1.533432565169673398e+04,1.533432565169673398e+04
1.479166666666666519e+00,5.999999999999999778e-01,0.000000000000000000e+00,9.975869804866434321e-02,0.000000000000000000e+00,0.000000000000000000e+00,-3.407541027199310901e-02,0.000000000000000000e+00,0.000000000000000000e+00,0.000000000000000000e+00,0.000000000000000000e+00,0.000000000000000000e+00,0.000000000000000000e+00,1.532511984370139726e+04,1.532511984370139726e+04,1.532511984370139726e+04,1.532511984370139726e+04
1.500000000000000000e+00,5.999999999999999778e-01,0.000000000000000000e+00,9.991484405809418490e-02,0.000000000000000000e+00,0.000000000000000000e+00,-4.087471471142605645e-02,0.000000000000000000e+00,0.000000000000000000e+00,0.000000000000000000e+00,0.000000000000000000e+00,0.000000000000000000e+00,0.000000000000000000e+00,1.533464492556560981e+04,1.533464492556560799e+04,1.533464492556560799e+04,1.533464492556560799e+04
1.520833333333333259e+00,5.999999999999999778e-01,-6.609741778897566912e-29,9.975870218270235790e-02,3.095952199692895187e-37,-5.795653573568237784e-26,-3.407342594452727330e-02,2.973969318393968460e-19,0.000000000000000000e+00,0.000000000000000000e+00,-7.375384012828843269e-36,-1.159459898698212099e-16,-8.327196450531804565e-17,1.532543654069575859e+04,1.532543654069575859e+04,1.532543654069575859e+04,1.532543654069575859e+04
1.541666666666666519e+00,5.999999999999999778e-01,0.000000000000000000e+00,9.991484405809418490e-02,0.000000000000000000e+00,0.000000000000000000e+00,-4.087471471142605645e-02,0.000000000000000000e+00,0.000000000000000000e+00,0.000000000000000000e+00,0.000000000000000000e+00,0.000000000000000000e+00,0.000000000000000000e+00,1.533496419278659778e+04,1.533496419278659778e+04,1.533496419278659778e+04,1.533496419278659778e+04
1.562500000000000000e+00,5.999999999999999778e-01,0.000000000000000000e+00,9.975870631674033095e-02,0.000000000000000000e+00,0.000000000000000000e+00,-3.407144161708210855e-02,0.000000000000000000e+00,0.000000000000000000e+00,0.000000000000000000e+00,0.000000000000000000e+00,0.000000000000000000e+00,0.000000000000000000e+00,1.532575323114520688e+04,1.532575323114520688e+04,1.532575323114520688e+04,1.532575323114520688e+04
1.583333333333333259e+00,5.999999999999999778e-01,0.000000000000000000e+00,9.991484405809418490e-02,0.000000000000000000e+00,0.000000000000000000e+00,-4.087471471142605645e-02,0.000000000000000000e+00,0.000000000000000000e+00,0.000000000000000000e+00,0.000000000000000000e+00,0.000000000000000000e+00,0.000000000000000000e+00,1.533528345336012535e+04,1.533528345336012899e+04,1.533528345336012899e+04,1.533528345336012535e+04
1.604166666666666519e+00,5.999999999999999778e-01,-3.265259330653332450e-28,9.975871045077826238e-02,2.476759854489146134e-36,-2.862929092367861120e-25,-3.406945728965755926e-02,1.469317342128764412e-18,0.000000000000000000e+00,0.000000000000000000e+00,1.159459898698212099e-16,6.956759392189272594e-16,-2.198215474278013730e-34,1.532606991505014412e+04,1.532606991505014412e+04,1.532606991505014412e+04,1.532606991505014412e+04
1.625000000000000000e+00,5.999999999999999778e-01,0.000000000000000000e+00,9.991484405809418490e-02,0.000000000000000000e+00,0.000000000000000000e+00,-4.087471471142605645e-02,0.000000000000000000e+00,0.000000000000000000e+00,0.000000000000000000e+00,0.000000000000000000e+00,0.000000000000000000e+00,0.000000000000000000e+00,1.533560270728660544e+04,1.533560270728660544e+04,1.533560270728660544e+04,1.533560270728660544e+04
1.645833333333333259e+00,5.999999999999999778e-01,0.000000000000000000e+00,9.975871458481613829e-02,0.000000000000000000e+00,0.000000000000000000e+00,-3.406747296225366012e-02,0.000000000000000000e+00,0.000000000000000000e+00,0.000000000000000000e+00,0.000000000000000000e+00,0.000000000000000000e+00,0.000000000000000000e+00,1.532638659241097957e+04,1.532638659241097957e+04,1.532638659241097957e+04,1.532638659241097957e+04
1.666666666666666519e+00,5.999999999999999778e-01,0.000000000000000000e+00,9.991484405809418490e-02,0.000000000000000000e+00,0.000000000000000000e+00,-4.087471471142605645e-02,0.000000000000000000e+00,0.000000000000000000e+00,0.000000000000000000e+00,0.000000000000000000e+00,0.000000000000000000e+00,0.000000000000000000e+00,1.533592195456644913e+04,1.533592195456644731e+04,1.533592195456644731e+04,1.533592195456644731e+04
1.687500000000000000e+00,5.999999999999999778e-01,-6.608341857288306877e-29,9.975871871885398645e-02,-9.287851835915759270e-37,-5.793759722991565558e-26,-3.406548863487039031e-02,2.973969318393968460e-19,0.000000000000000000e+00,0.000000000000000000e+00,-7.375384012828843269e-36,-1.159459898698212099e-16,-8.327196450531804565e-17,1.532670326322811343e+04,1.532670326322811707e+04,1.532670326322811707e+04,1.532670326322811707e+04
1.708333333333333259e+00,5.999999999999999778e-01,0.000000000000000000e+00,9.991484405809418490e-02,0.000000000000000000e+00,0.000000000000000000e+00,-4.087471471142605645e-02,0.000000000000000000e+00,0.000000000000000000e+00,0.000000000000000000e+00,0.000000000000000000e+00,0.000000000000000000e+00,0.000000000000000000e+00,1.533624119520007662e+04,1.533624119520007298e+04,1.533624119520007298e+04,1.533624119520007298e+04
1.729166666666666519e+00,5.999999999999999778e-01,-2.161841599471808683e-28,9.975872285289177910e-02,0.000000000000000000e+00,-1.895306026188220520e-25,-3.406350430750776370e-02,9.729506811554084481e-19,0.000000000000000000e+00,0.000000000000000000e+00,2.318919797396424198e-16,-3.478379696094636297e-16,-2.081799112632950710e-16,1.532701992750196405e+04,1.532701992750196223e+04,1.532701992750196223e+04,1.532701992750196405e+04
1.750000000000000000e+00,5.999999999999999778e-01,0.000000000000000000e+00,9.991484405809418490e-02,0.000000000000000000e+00,0.000000000000000000e+00,-4.087471471142605645e-02,0.000000000000000000e+00,0.000000000000000000e+00,0.000000000000000000e+00,0.000000000000000000e+00,0.000000000000000000e+00,0.000000000000000000e+00,1.533656042918789171e+04,1.533656042918789171e+04,1.533656042918789171e+04,1.533656042918789171e+04
1.770833333333333259e+00,5.999999999999999778e-01,0.000000000000000000e+00,9.975872698692953011e-02,0.000000000000000000e+00,0.000000000000000000e+00,-3.406151998016577337e-02,0.000000000000000000e+00,0.000000000000000000e+00,0.000000000000000000e+00,0.000000000000000000e+00,0.000000000000000000e+00,0.000000000000000000e+00,1.532733658523292252e+04,1.532733658523292252e+04,1.532733658523292252e+04,1.532733658523292252e+04
1.791666666666666519e+00,5.999999999999999778e-01,0.000000000000000000e+00,9.991484405809418490e-02,0.000000000000000000e+00,0.000000000000000000e+00,-4.087471471142605645e-02,0.000000000000000000e+00,0.000000000000000000e+00,0.000000000000000000e+00,0.000000000000000000e+00,0.000000000000000000e+00,0.000000000000000000e+00,1.533687965653032552e+04,1.533687965653032552e+04,1.533687965653032552e+04,1.533687965653032552e+04
1.812500000000000000e+00,5.999999999999999778e-01,0.000000000000000000e+00,9.975873112096722561e-02,0.000000000000000000e+00,0.000000000000000000e+00,-3.405953565284438461e-02,0.000000000000000000e+00,0.000000000000000000e+00,0.000000000000000000e+00,0.000000000000000000e+00,0.000000000000000000e+00,0.000000000000000000e+00,1.532753502854957151e+04,1.532753502854957151e+04,1.532753502854957151e+04,1.532753502854957151e+04
1.833333333333333259e+00,5.999999999999999778e-01,0.000000000000000000e+00,9.991484405809418490e-02,0.000000000000000000e+00,0.000000000000000000e+00,-4.087471471142605645e-02,0.000000000000000000e+00,0.000000000000000000e+00,0.000000000000000000e+00,0.000000000000000000e+00,0.000000000000000000e+00,0.000000000000000000e+00,1.533692114350411612e+04,1.533692114350411612e+04,1.533692114350411612e+04,1.533692114350411612e+04
1.854166666666666519e+00,5.999999999999999778e-01,0.000000000000000000e+00,9.975873165823552491e-02,0.000000000000000000e+00,0.000000000000000000e+00,-3.405927776546337216e-02,0.000000000000000000e+00,0.000000000000000000e+00,0.000000000000000000e+00,0.000000000000000000e+00,0.000000000000000000e+00,0.000000000000000000e+00,1.532753466877818028e+04,1.532753466877818028e+04,1.532753466877818028e+04,1.532753466877818028e+04
1.875000000000000000e+00,5.999999999999999778e-01,0.000000000000000000e+00,9.991484405809418490e-02,0.000000000000000000e+00,0.000000000000000000e+00,-4.087471471142605645e-02,0.000000000000000000e+00,0.000000000000000000e+00,0.000000000000000000e+00,0.000000000000000000e+00,0.000000000000000000e+00,0.000000000000000000e+00,1.533692114350411612e+04,1.533692114350411612e+04,1.533692114350411612e+04,1.533692114350411612e+04
1.895833333333333259e+00,5.999999999999999778e-01,0.000000000000000000e+00,9.975873165823552491e-02,0.000000000000000000e+00,0.000000000000000000e+00,-3.405927776546337216e-02,0.000000000000000000e+00,0.000000000000000000e+00,0.000000000000000000e+00,0.000000000000000000e+00,0.000000000000000000e+00,0.000000000000000000e+00,1.532753466877818028e+04,1.532753466877818028e+04,1.532753466877818028e+04,1.532753466877818028e+04
1.916666666666666519e+00,5.999999999999999778e-01,0.000000000000000000e+00,9.991484405809418490e-02,0.000000000000000000e+00,0.000000000000000000e+00,-4.087471471142605645e-02,0.000000000000000000e+00,0.000000000000000000e+00,0.000000000000000000e+00,0.000000000000000000e+00,0.000000000000000000e+00,0.000000000000000000e+00,1.533692114350411612e+04,1.533692114350411612e+04,1.533692114350411612e+04,1.533692114350411612e+04
1.937500000000000000e+00,5.999999999999999778e-01,0.000000000000000000e+00,9.975873165823552491e-02,0.000000000000000000e+00,0.000000000000000000e+00,-3.405927776546337216e-02,0.000000000000000000e+00,0.000000000000000000e+00,0.000000000000000000e+00,0.000000000000000000e+00,0.000000000000000000e+00,0.000000000000000000e+00,1.532753466877818028e+04,1.532753466877818028e+04,1.532753466877818028e+04,1.532753466877818028e+04
1.958333333333333259e+00,5.999999999999999778e-01,0.000000000000000000e+00,9.991484405809418490e-02,0.000000000000000000e+00,0.000000000000000000e+00,-4.087471471142605645e-02,0.000000000000000000e+00,0.000000000000000000e+00,0.000000000000000000e+00,0.000000000000000000e+00,0.000000000000000000e+00,0.000000000000000000e+00,1.533692114350411612e+04,1.533692114350411612e+04,1.533692114350411612e+04,1.533692114350411612e+04
1.979166666666666519e+00,5.999999999999999778e-01,0.000000000000000000e+00,9.975873165823552491e-02,0.000000000000000000e+00,0.000000000000000000e+00,-3.405927776546337216e-02,0.000000000000000000e+00,0.000000000000000000e+00,0.000000000000000000e+00,0.000000000000000000e+00,0.000000000000000000e+00,0.000000000000000000e+00,1.532753466877818028e+04,1.532753466877818028e+04,1.532753466877818028e+04,1.532753466877818028e+04
2.000000000000000000e+00,5.999999999999999778e-01,0.000000000000000000e+00,9.991484405809418490e-02,0.000000000000000000e+00,0.000000000000000000e+00,-4.087471471142605645e-02,0.000000000000000000e+00,0.000000000000000000e+00,0.000000000000000000e+00,0.000000000000000000e+00,0.000000000000000000e+00,0.000000000000000000e+00,1.533692114350411612e+04,1.533692114350411612e+04,1.533692114350411612e+04,1.533692114350411612e+04
2.020833333333333037e+00,5.999999999999999778e-01,0.000000000000000000e+00,9.975873165823552491e-02,0.000000000000000000e+00,0.000000000000000000e+00,-3.405927776546337216e-02,0.000000000000000000e+00,0.000000000000000000e+00,0.000000000000000000e+00,0.000000000000000000e+00,0.000000000000000000e+00,0.000000000000000000e+00,1.532753466877818028e+04,1.532753466877818028e+04,1.532753466877818028e+04,1.532753466877818028e+04
2.041666666666666519e+00,5.999999999999999778e-01,0.000000000000000000e+00,9.991484405809418490e-02,0.000000000000000000e+00,0.000000000000000000e+00,-4.087471471142605645e-02,0.000000000000000000e+00,0.000000000000000000e+00,0.000000000000000000e+00,0.000000000000000000e+00,0.000000000000000000e+00,0.000000000000000000e+00,1.533692114350411612e+04,1.533692114350411612e+04,1.533692114350411612e+04,1.533692114350411612e+04
2.062500000000000000e+00,5.999999999999999778e-01,0.000000000000000000e+00,9.975873165823552491e-02,0.000000000000000000e+00,0.000000000000000000e+00,-3.405927776546337216e-02,0.000000000000000000e+00,0.000000000000000000e+00,0.000000000000000000e+00,0.000000000000000000e+00,0.000000000000000000e+00,0.000000000000000000e+00,1.532753466877818028e+04,1.532753466877818028e+04,1.532753466877818028e+04,1.532753466877818028e+04
2.083333333333333037e+00,5.999999999999999778e-01,0.000000000000000000e+00,9.991484405809418490e-02,0.000000000000000000e+00,0.000000000000000000e+00,-4.087471471142605645e-02,0.000000000000000000e+00,0.000000000000000000e+00,0.000000000000000000e+00,0.000000000000000000e+00,0.000000000000000000e+00,0.000000000000000000e+00,1.533692114350411612e+04,1.533692114350411612e+04,1.533692114350411612e+04,1.533692114350411612e+04
2.104166666666666519e+00,5.999999999999999778e-01,0.000000000000000000e+00,9.975873165823552491e-02,0.000000000000000000e+00,0.000000000000000000e+00,-3.405927776546337216e-02,0.000000000000000000e+00,0.000000000000000000e+00,0.000000000000000000e+00,0.000000000000000000e+00,0.000000000000000000e+00,0.000000000000000000e+00,1.532753466877818028e+04,1.532753466877818028e+04,1.532753466877818028e+04,1.532753466877818028e+04
2.125000000000000000e+00,5.999999999999999778e-01,0.000000000000000000e+00,9.991484405809418490e-02,0.000000000000000000e+00,0.000000000000000000e+00,-4.087471471142605645e-02,0.000000000000000000e+00,0.000000000000000000e+00,0.000000000000000000e+00,0.000000000000000000e+00,0.000000000000000000e+00,0.000000000000000000e+00,1.533692114350411612e+04,1.533692114350411612e+04,1.533692114350411612e+04,1.533692114350411612e+04
2.145833333333333037e+00,5.999999999999999778e-01,0.000000000000000000e+00,9.975873165823552491e-02,0.000000000000000000e+00,0.000000000000000000e+00,-3.405927776546337216e-02,0.000000000000000000e+00,0.000000000000000000e+00,0.000000000000000000e+00,0.000000000000000000e+00,0.000000000000000000e+00,0.000000000000000000e+00,1.532753466877818028e+04,1.532753466877818028e+04,1.532753466877818028e+04,1.532753466877818028e+04
2.166666666666666519e+00,5.999999999999999778e-01,0.000000000000000000e+00,9.991484405809418490e-02,0.000000000000000000e+00,0.000000000000000000e+00,-4.087471471142605645e-02,0.000000000000000000e+00,0.000000000000000000e+00,0.000000000000000000e+00,0.000000000000000000e+00,0.000000000000000000e+00,0.000000000000000000e+00,1.533692114350411612e+04,1.533692114350411612e+04,1.533692114350411612e+04,1.533692114350411612e+04
2.187500000000000000e+00,5.999999999999999778e-01,0.000000000000000000e+00,9.975873165823552491e-02,0.000000000000000000e+00,0.000000000000000000e+00,-3.405927776546337216e-02,0.000000000000000000e+00,0.000000000000000000e+00,0.000000000000000000e+00,0.000000000000000000e+00,0.000000000000000000e+00,0.000000000000000000e+00,1.532753466877818028e+04,1.532753466877818028e+04,1.532753466877818028e+04,1.532753466877818028e+04
2.208333333333333037e+00,5.999999999999999778e-01,0.000000000000000000e+00,9.991484405809418490e-02,0.000000000000000000e+00,0.000000000000000000e+00,-4.087471471142605645e-02,0.000000000000000000e+00,0.000000000000000000e+00,0.000000000000000000e+00,0.000000000000000000e+00,0.000000000000000000e+00,0.000000000000000000e+00,1.533692114350411612e+04,1.533692114350411612e+04,1.533692114350411612e+04,1.533692114350411612e+04
2.229166666666666519e+00,5.999999999999999778e-01,0.000000000000000000e+00,9.975873165823552491e-02,0.000000000000000000e+00,0.000000000000000000e+00,-3.405927776546337216e-02,0.000000000000000000e+00,0.000000000000000000e+00,0.000000000000000000e+00,0.000000000000000000e+00,0.000000000000000000e+00,0.000000000000000000e+00,1.532753466877818028e+04,1.532753466877818028e+04,1.532753466877818028e+04,1.532753466877818028e+04
2.250000000000000000e+00,5.999999999999999778e-01,0.000000000000000000e+00,9.991484405809418490e-02,0.000000000000000000e+00,0.000000000000000000e+00,-4.087471471142605645e-02,0.000000000000000000e+00,0.000000000000000000e+00,0.000000000000000000e+00,0.000000000000000000e+00,0.000000000000000000e+00,0.000000000000000000e+00,1.533692114350411612e+04,1.533692114350411612e+04,1.533692114350411612e+04,1.533692114350411612e+04
2.270833333333333037e+00,5.999999999999999778e-01,0.000000000000000000e+00,9.975873165823552491e-02,0.000000000000000000e+00,0.000000000000000000e+00,-3.405927776546337216e-02,0.000000000000000000e+00,0.000000000000000000e+00,0.000000000000000000e+00,0.000000000000000000e+00,0.000000000000000000e+00,0.000000000000000000e+00,1.532753466877818028e+04,1.532753466877818028e+04,1.532753466877818028e+04,1.532753466877818028e+04
2.291666666666666519e+00,5.999999999999999778e-01,0.000000000000000000e+00,9.991484405809418490e-02,0.000000000000000000e+00,0.000000000000000000e+00,-4.087471471142605645e-02,0.000000000000000000e+00,0.000000000000000000e+00,0.000000000000000000e+00,0.000000000000000000e+00,0.000000000000000000e+00,0.000000000000000000e+00,1.533692114350411612e+04,1.533692114350411612e+04,1.533692114350411612e+04,1.533692114350411612e+04
2.312500000000000000e+00,5.999999999999999778e-01,0.000000000000000000e+00,9.975873165823552491e-02,0.000000000000000000e+00,0.000000000000000000e+00,-3.405927776546337216e-02,0.000000000000000000e+00,0.000000000000000000e+00,0.000000000000000000e+00,0.000000000000000000e+00,0.000000000000000000e+00,0.000000000000000000e+00,1.532753466877818028e+04,1.532753466877818028e+04,1.532753466877818028e+04,1.532753466877818028e+04
2.333333333333333037e+00,5.999999999999999778e-01,0.000000000000000000e+00,9.991484405809418490e-02,0.000000000000000000e+00,0.000000000000000000e+00,-4.087471471142605645e-02,0.000000000000000000e+00,0.000000000000000000e+00,0.000000000000000000e+00,0.000000000000000000e+00,0.000000000000000000e+00,0.000000000000000000e+00,1.533692114350411612e+04,1.533692114350411612e+04,1.533692114350411612e+04,1.533692114350411612e+04
2.354166666666666519e+00,5.999999999999999778e-01,0.000000000000000000e+00,9.975873165823552491e-02,0.000000000000000000e+00,0.000000000000000000e+00,-3.405927776546337216e-02,0.000000000000000000e+00,0.000000000000000000e+00,0.000000000000000000e+00,0.000000000000000000e+00,0.000000000000000000e+00,0.000000000000000000e+00,1.532753466877818028e+04,1.532753466877818028e+04,1.532753466877818028e+04,1.532753466877818028e+04
2.375000000000000000e+00,5.999999999999999778e-01,0.000000000000000000e+00,9.991484405809418490e-02,0.000000000000000000e+00,0.000000000000000000e+00,-4.087471471142605645e-02,0.000000000000000000e+00,0.000000000000000000e+00,0.000000000000000000e+00,0.000000000000000000e+00,0.000000000000000000e+00,0.000000000000000000e+00,1.533692114350411612e+04,1.533692114350411612e+04,1.533692114350411612e+04,1.533692114350411612e+04
2.395833333333333037e+00,5.999999999999999778e-01,0.000000000000000000e+00,9.975873165823552491e-02,0.000000000000000000e+00,0.000000000000000000e+00,-3.405927776546337216e-02,0.000000000000000000e+00,0.000000000000000000e+00,0.000000000000000000e+00,0.000000000000000000e+00,0.000000000000000000e+00,0.000000000000000000e+00,1.532753466877818028e+04,1.532753466877818028e+04,1.532753466877818028e+04,1.532753466877818028e+04
2.416666666666666519e+00,5.999999999999999778e-01,0.000000000000000000e+00,9.991484405809418490e-02,0.000000000000000000e+00,0.000000000000000000e+00,-4.087471471142605645e-02,0.000000000000000000e+00,0.000000000000000000e+00,0.000000000000000000e+00,0.000000000000000000e+00,0.000000000000000000e+00,0.000000000000000000e+00,1.533692114350411612e+04,1.533692114350411612e+04,1.533692114350411612e+04,1.533692114350411612e+04
2.437500000000000000e+00,5.999999999999999778e-01,0.000000000000000000e+00,9.975873165823552491e-02,0.000000000000000000e+00,0.000000000000000000e+00,-3.405927776546337216e-02,0.000000000000000000e+00,0.000000000000000000e+00,0.000000000000000000e+00,0.000000000000000000e+00,0.000000000000000000e+00,0.000000000000000000e+00,1.532753466877818028e+04,1.532753466877818028e+04,1.532753466877818028e+04,1.532753466877818028e+04
2.458333333333333037e+00,5.999999999999999778e-01,0.000000000000000000e+00,9.991484405809418490e-02,0.000000000000000000e+00,0.000000000000000000e+00,-4.087471471142605645e-02,0.000000000000000000e+00,0.000000000000000000e+00,0.000000000000000000e+00,0.000000000000000000e+00,0.000000000000000000e+00,0.000000000000000000e+00,1.533692114350411612e+04,1.533692114350411612e+04,1.533692114350411612e+04,1.533692114350411612e+04
2.479166666666666519e+00,5.999999999999999778e-01,0.000000000000000000e+00,9.975873165823552491e-02,0.000000000000000000e+00,0.000000000000000000e+00,-3.405927776546337216e-02,0.000000000000000000e+00,0.000000000000000000e+00,0.000000000000000000e+00,0.000000000000000000e+00,0.000000000000000000e+00,0.000000000000000000e+00,1.532753466877818028e+04,1.532753466877818028e+04,1.532753466877818028e+04,1.532753466877818028e+04
2.500000000000000000e+00,5.999999999999999778e-01,0.000000000000000000e+00,9.991484405809418490e-02,0.000000000000000000e+00,0.000000000000000000e+00,-4.087471471142605645e-02,0.000000000000000000e+00,0.000000000000000000e+00,0.000000000000000000e+00,0.000000000000000000e+00,0.000000000000000000e+00,0.000000000000000000e+00,1.533692114350411612e+04,1.533692114350411612e+04,1.533692114350411612e+04,1.533692114350411612e+04
2.520833333333333037e+00,5.999999999999999778e-01,0.000000000000000000e+00,9.975873165823552491e-02,0.000000000000000000e+00,0.000000000000000000e+00,-3.405927776546337216e-02,0.000000000000000000e+00,0.000000000000000000e+00,0.000000000000000000e+00,0.000000000000000000e+00,0.000000000000000000e+00,0.000000000000000000e+00,1.532753466877818028e+04,1.532753466877818028e+04,1.532753466877818028e+04,1.532753466877818028e+04
2.541666666666666519e+00,5.999999999999999778e-01,0.000000000000000000e+00,9.991484405809418490e-02,0.000000000000000000e+00,0.000000000000000000e+00,-4.087471471142605645e-02,0.000000000000000000e+00,0.000000000000000000e+00,0.000000000000000000e+00,0.000000000000000000e+00,0.000000000000000000e+00,0.000000000000000000e+00,1.533692114350411612e+04,1.533692114350411612e+04,1.533692114350411612e+04,1.533692114350411612e+04
2.562500000000000000e+00,5.999999999999999778e-01,0.000000000000000000e+00,9.975873165823552491e-02,0.000000000000000000e+00,0.000000000000000000e+00,-3.405927776546337216e-02,0.000000000000000000e+00,0.000000000000000000e+00,0.000000000000000000e+00,0.000000000000000000e+00,0.000000000000000000e+00,0.000000000000000000e+00,1.532753466877818028e+04,1.532753466877818028e+04,1.532753466877818028e+04,1.532753466877818028e+04
2.583333333333333037e+00,5.999999999999999778e-01,0.000000000000000000e+00,9.991484405809418490e-02,0.000000000000000000e+00,0.000000000000000000e+00,-4.087471471142605645e-02,0.000000000000000000e+00,0.000000000000000000e+00,0.000000000000000000e+00,0.000000000000000000e+00,0.000000000000000000e+00,0.000000000000000000e+00,1.533692114350411612e+04,1.533692114350411612e+04,1.533692114350411612e+04,1.533692114350411612e+04
2.604166666666666519e+00,5.999999999999999778e-01,0.000000000000000000e+00,9.975873165823552491e-02,0.000000000000000000e+00,0.000000000000000000e+00,-3.405927776546337216e-02,0.000000000000000000e+00,0.000000000000000000e+00,0.000000000000000000e+00,0.000000000000000000e+00,0.000000000000000000e+00,0.000000000000000000e+00,1.532753466877818028e+04,1.532753466877818028e+04,1.532753466877818028e+04,1.532753466877818028e+04
2.625000000000000000e+00,5.999999999999999778e-01,0.000000000000000000e+00,9.991484405809418490e-02,0.000000000000000000e+00,0.000000000000000000e+00,-4.087471471142605645e-02,0.000000000000000000e+00,0.000000000000000000e+00,0.000000000000000000e+00,0.000000000000000000e+00,0.000000000000000000e+00,0.000000000000000000e+00,1.533692114350411612e+04,1.533692114350411612e+04,1.533692114350411612e+04,1.533692114350411612e+04
2.645833333333333037e+00,5.999999999999999778e-01,0.000000000000000000e+00,9.975873165823552491e-02,0.000000000000000000e+00,0.000000000000000000e+00,-3.405927776546337216e-02,0.000000000000000000e+00,0.000000000000000000e+00,0.000000000000000000e+00,0.000000000000000000e+00,0.000000000000000000e+00,0.000000000000000000e+00,1.532753466877818028e+04,1.532753466877818028e+04,1.532753466877818028e+04,1.532753466877818028e+04
2.666666666666666519e+00,5.999999999999999778e-01,0.000000000000000000e+00,9.991484405809418490e-02,0.000000000000000000e+00,0.000000000000000000e+00,-4.087471471142605645e-02,0.000000000000000000e+00,0.000000000000000000e+00,0.000000000000000000e+00,0.000000000000000000e+00,0.000000000000000000e+00,0.000000000000000000e+00,1.533692114350411612e+04,1.533692114350411612e+04,1.533692114350411612e+04,1.533692114350411612e+04
2.687500000000000000e+00,5.999999999999999778e-01,0.000000000000000000e+00,9.975873165823552491e-02,0.000000000000000000e+00,0.000000000000000000e+00,-3.405927776546337216e-02,0.000000000000000000e+00,0.000000000000000000e+00,0.000000000000000000e+00,0.000000000000000000e+00,0.000000000000000000e+00,0.000000000000000000e+00,1.532753466877818028e+04,1.532753466877818028e+04,1.532753466877818028e+04,1.532753466877818028e+04
2.708333333333333037e+00,5.999999999999999778e-01,0.000000000000000000e+00,9.991484405809418490e-02,0.000000000000000000e+00,0.000000000000000000e+00,-4.087471471142605645e-02,0.000000000000000000e+00,0.000000000000000000e+00,0.000000000000000000e+00,0.000000000000000000e+00,0.000000000000000000e+00,0.000000000000000000e+00,1.533692114350411612e+04,1.533692114350411612e+04,1.533692114350411612e+04,1.533692114350411612e+04
2.729166666666666519e+00,5.999999999999999778e-01,0.000000000000000000e+00,9.975873165823552491e-02,0.000000000000000000e+00,0.000000000000000000e+00,-3.405927776546337216e-02,0.000000000000000000e+00,0.000000000000000000e+00,0.000000000000000000e+00,0.000000000000000000e+00,0.000000000000000000e+00,0.000000000000000000e+00,1.532753466877818028e+04,1.532753466877818028e+04,1.532753466877818028e+04,1.532753466877818028e+04
2.750000000000000000e+00,5.999999999999999778e-01,0.000000000000000000e+00,9.991484405809418490e-02,0.000000000000000000e+00,0.000000000000000000e+00,-4.087471471142605645e-02,0.000000000000000000e+00,0.000000000000000000e+00,0.000000000000000000e+00,0.000000000000000000e+00,0.000000000000000000e+00,0.000000000000000000e+00,1.533692114350411612e+04,1.533692114350411612e+04,1.533692114350411612e+04,1.533692114350411612e+04
2.770833333333333037e+00,5.999999999999999778e-01,0.000000000000000000e+00,9.975873165823552491e-02,0.000000000000000000e+00,0.000000000000000000e+00,-3.405927776546337216e-02,0.000000000000000000e+00,0.000000000000000000e+00,0.000000000000000000e+00,0.000000000000000000e+00,0.000000000000000000e+00,0.000000000000000000e+00,1.532753466877818028e+04,1.532753466877818028e+04,1.532753466877818028e+04,1.532753466877818028e+04
2.791666666666666519e+00,5.999999999999999778e-01,0.000000000000000000e+00,9.991484405809418490e-02,0.000000000000000000e+00,0.000000000000000000e+00,-4.087471471142605645e-02,0.000000000000000000e+00,0.000000000000000000e+00,0.000000000000000000e+00,0.000000000000000000e+00,0.000000000000000000e+00,0.000000000000000000e+00,1.533692114350411612e+04,1.533692114350411612e+04,1.533692114350411612e+04,1.533692114350411612e+04
2.812500000000000000e+00,5.999999999999999778e-01,0.000000000000000000e+00,9.975873165823552491e-02,0.000000000000000000e+00,0.000000000000000000e+00,-3.405927776546337216e-02,0.000000000000000000e+00,0.000000000000000000e+00,0.000000000000000000e+00,0.000000000000000000e+00,0.000000000000000000e+00,0.000000000000000000e+00,1.532753466877818028e+04,1.532753466877818028e+04,1.532753466877818028e+04,1.532753466877818028e+04
2.833333333333333037e+00,5.999999999999999778e-01,0.000000000000000000e+00,9.991484405809418490e-02,0.000000000000000000e+00,0.000000000000000000e+00,-4.087471471142605645e-02,0.000000000000000000e+00,0.000000000000000000e+00,0.000000000000000000e+00,0.000000000000000000e+00,0.000000000000000000e+00,0.000000000000000000e+00,1.533692114350411612e+04,1.533692114350411612e+04,1.533692114350411612e+04,1.533692114350411612e+04
2.854166666666666519e+00,5.999999999999999778e-01,0.000000000000000000e+00,9.975873165823552491e-02,0.000000000000000000e+00,0.000000000000000000e+00,-3.405927776546337216e-02,0.000000000000000000e+00,0.000000000000000000e+00,0.000000000000000000e+00,0.000000000000000000e+00,0.000000000000000000e+00,0.000000000000000000e+00,1.532753466877818028e+04,1.532753466877818028e+04,1.532753466877818028e+04,1.532753466877818028e+04
2.875000000000000000e+00,5.999999999999999778e-01,0.000000000000000000e+00,9.991484405809418490e-02,0.000000000000000000e+00,0.000000000000000000e+00,-4.087471471142605645e-02,0.000000000000000000e+00,0.000000000000000000e+00,0.000000000000000000e+00,0.000000000000000000e+00,0.000000000000000000e+00,0.000000000000000000e+00,1.533692114350411612e+04,1.533692114350411612e+04,1.533692114350411612e+04,1.533692114350411612e+04
2.895833333333333037e+00,5.999999999999999778e-01,0.000000000000000000e+00,9.975873165823552491e-02,0.000000000000000000e+00,0.000000000000000000e+00,-3.405927776546337216e-02,0.000000000000000000e+00,0.000000000000000000e+00,0.000000000000000000e+00,0.000000000000000000e+00,0.000000000000000000e+00,0.000000000000000000e+00,1.532753466877818028e+04,1.532753466877818028e+04,1.532753466877818028e+04,1.532753466877818028e+04
